{
  "metadata": {
      "resultset": {
          "offset": 1,
          "count": 342,
          "limit": 1000
      }
  },
  "results": [
      {
          "elevation": 24.1,
          "mindate": "1954-08-01",
          "maxdate": "1977-02-01",
          "latitude": 47.31667,
          "name": "AUBURN, WA US",
          "datacoverage": 0.12,
          "id": "COOP:450324",
          "elevationUnit": "METERS",
          "longitude": -122.23333
      },
      {
          "elevation": 34.1,
          "mindate": "1931-01-01",
          "maxdate": "1959-05-01",
          "latitude": 47.76667,
          "name": "BOTHELL, WA US",
          "datacoverage": 0.962,
          "id": "COOP:450826",
          "elevationUnit": "METERS",
          "longitude": -122.21667
      },
      {
          "elevation": 33.5,
          "mindate": "1919-01-01",
          "maxdate": "2015-11-01",
          "latitude": 47.5688,
          "name": "BREMERTON, WA US",
          "datacoverage": 0.9777,
          "id": "COOP:450872",
          "elevationUnit": "METERS",
          "longitude": -122.6827
      },
      {
          "elevation": 18.3,
          "mindate": "1952-10-01",
          "maxdate": "1953-03-01",
          "latitude": 47.66667,
          "name": "CARNATION 1 NW, WA US",
          "datacoverage": 1,
          "id": "COOP:451142",
          "elevationUnit": "METERS",
          "longitude": -121.91667
      },
      {
          "elevation": 15.2,
          "mindate": "1948-07-04",
          "maxdate": "2003-02-01",
          "latitude": 47.69306,
          "name": "CARNATION 4 NW, WA US",
          "datacoverage": 0.9407,
          "id": "COOP:451146",
          "elevationUnit": "METERS",
          "longitude": -121.99472
      },
      {
          "elevation": 475.5,
          "mindate": "1919-01-01",
          "maxdate": "2015-11-01",
          "latitude": 47.4144,
          "name": "CEDAR LAKE, WA US",
          "datacoverage": 0.9931,
          "id": "COOP:451233",
          "elevationUnit": "METERS",
          "longitude": -121.7561
      },
      {
          "elevation": 244.1,
          "mindate": "1932-01-01",
          "maxdate": "1954-03-01",
          "latitude": 47.76667,
          "name": "DUVALL 3 NE, WA US",
          "datacoverage": 0.2098,
          "id": "COOP:452309",
          "elevationUnit": "METERS",
          "longitude": -121.93333
      },
      {
          "elevation": 184.7,
          "mindate": "1949-12-01",
          "maxdate": "1952-06-01",
          "latitude": 47.90778,
          "name": "EVERETT SNOHOMISH CO AIRPORT, WA US",
          "datacoverage": 1,
          "id": "COOP:452670",
          "elevationUnit": "METERS",
          "longitude": -122.28028
      },
      {
          "elevation": 18.3,
          "mindate": "1919-01-01",
          "maxdate": "2015-11-01",
          "latitude": 47.9752,
          "name": "EVERETT, WA US",
          "datacoverage": 0.9966,
          "id": "COOP:452675",
          "elevationUnit": "METERS",
          "longitude": -122.195
      },
      {
          "elevation": 15.5,
          "mindate": "1919-01-01",
          "maxdate": "1995-06-01",
          "latitude": 47.306667,
          "name": "GRAPEVIEW 3 SW, WA US",
          "datacoverage": 0.9859,
          "id": "COOP:453284",
          "elevationUnit": "METERS",
          "longitude": -122.873611
      },
      {
          "elevation": 8.8,
          "mindate": "1919-01-01",
          "maxdate": "2015-11-01",
          "latitude": 47.41735,
          "name": "KENT, WA US",
          "datacoverage": 0.9218,
          "id": "COOP:454169",
          "elevationUnit": "METERS",
          "longitude": -122.2433
      },
      {
          "elevation": 11.9,
          "mindate": "1921-01-01",
          "maxdate": "1958-02-01",
          "latitude": 47.7,
          "name": "KEYPORT, WA US",
          "datacoverage": 0.8992,
          "id": "COOP:454187",
          "elevationUnit": "METERS",
          "longitude": -122.61667
      },
      {
          "elevation": 163.1,
          "mindate": "1919-01-01",
          "maxdate": "2015-11-01",
          "latitude": 47.3766,
          "name": "LANDSBURG, WA US",
          "datacoverage": 0.9854,
          "id": "COOP:454486",
          "elevationUnit": "METERS",
          "longitude": -121.9613
      },
      {
          "elevation": 36.6,
          "mindate": "1929-02-01",
          "maxdate": "2015-11-01",
          "latitude": 47.8452,
          "name": "MONROE, WA US",
          "datacoverage": 0.9828,
          "id": "COOP:455525",
          "elevationUnit": "METERS",
          "longitude": -121.9944
      },
      {
          "elevation": 244.1,
          "mindate": "1931-07-01",
          "maxdate": "1949-05-01",
          "latitude": 47.76667,
          "name": "DUVALL 3 NE, WA US",
          "datacoverage": 0.9068,
          "id": "COOP:455680",
          "elevationUnit": "METERS",
          "longitude": -121.93333
      },
      {
          "elevation": 280.4,
          "mindate": "1924-07-01",
          "maxdate": "2015-11-01",
          "latitude": 47.3058,
          "name": "PALMER 3 ESE, WA US",
          "datacoverage": 0.9954,
          "id": "COOP:456295",
          "elevationUnit": "METERS",
          "longitude": -121.8513
      },
      {
          "elevation": 15.2,
          "mindate": "1919-01-01",
          "maxdate": "1995-07-01",
          "latitude": 47.2,
          "name": "PUYALLUP 2 W EXPERIMENTAL STATION, WA US",
          "datacoverage": 0.9892,
          "id": "COOP:456803",
          "elevationUnit": "METERS",
          "longitude": -122.33333
      },
      {
          "elevation": 9.1,
          "mindate": "1949-01-01",
          "maxdate": "1949-04-01",
          "latitude": 47.2,
          "name": "PUYALLUP 3 W, WA US",
          "datacoverage": 1,
          "id": "COOP:456808",
          "elevationUnit": "METERS",
          "longitude": -122.33333
      },
      {
          "elevation": 6.1,
          "mindate": "1965-10-01",
          "maxdate": "1967-10-31",
          "latitude": 47.53028,
          "name": "SEATTLE BOEING FIELD, WA US",
          "datacoverage": 0.0414,
          "id": "COOP:457456",
          "elevationUnit": "METERS",
          "longitude": -122.30083
      },
      {
          "elevation": 5.8,
          "mindate": "1972-12-01",
          "maxdate": "1998-07-01",
          "latitude": 47.65,
          "name": "SEATTLE PORTAGE BAY, WA US",
          "datacoverage": 0.9936,
          "id": "COOP:457458",
          "elevationUnit": "METERS",
          "longitude": -122.3
      },
      {
          "elevation": 112.8,
          "mindate": "1961-03-01",
          "maxdate": "1986-06-01",
          "latitude": 47.73333,
          "name": "SEATTLE JACKSON PARK, WA US",
          "datacoverage": 1,
          "id": "COOP:457459",
          "elevationUnit": "METERS",
          "longitude": -122.33333
      },
      {
          "elevation": 128.9,
          "mindate": "1941-05-01",
          "maxdate": "1960-10-01",
          "latitude": 47.7,
          "name": "SEATTLE MAPLE LEAF R, WA US",
          "datacoverage": 0.91,
          "id": "COOP:457463",
          "elevationUnit": "METERS",
          "longitude": -122.31667
      },
      {
          "elevation": 14.9,
          "mindate": "1929-08-01",
          "maxdate": "1964-02-01",
          "latitude": 47.68333,
          "name": "SEATTLE NAS, WA US",
          "datacoverage": 0.9808,
          "id": "COOP:457468",
          "elevationUnit": "METERS",
          "longitude": -122.26667
      },
      {
          "elevation": 18.3,
          "mindate": "1986-10-01",
          "maxdate": "2015-11-01",
          "latitude": 47.6872,
          "name": "SEATTLE SAND POINT WEATHER FORECAST OFFICE, WA US",
          "datacoverage": 0.9086,
          "id": "COOP:457470",
          "elevationUnit": "METERS",
          "longitude": -122.2553
      },
      {
          "elevation": 112.8,
          "mindate": "1944-12-01",
          "maxdate": "2015-11-01",
          "latitude": 47.4444,
          "name": "SEATTLE TACOMA AIRPORT, WA US",
          "datacoverage": 1,
          "id": "COOP:457473",
          "elevationUnit": "METERS",
          "longitude": -122.3138
      },
      {
          "elevation": 29,
          "mindate": "1919-01-01",
          "maxdate": "1983-07-01",
          "latitude": 47.65,
          "name": "SEATTLE UNIVERSITY OF WASH, WA US",
          "datacoverage": 0.982,
          "id": "COOP:457478",
          "elevationUnit": "METERS",
          "longitude": -122.28333
      },
      {
          "elevation": 4.3,
          "mindate": "1929-02-01",
          "maxdate": "1967-10-01",
          "latitude": 47.53333,
          "name": "SEATTLE BOEING FIELD, WA US",
          "datacoverage": 1,
          "id": "COOP:457483",
          "elevationUnit": "METERS",
          "longitude": -122.31667
      },
      {
          "elevation": 4,
          "mindate": "1919-01-01",
          "maxdate": "1972-10-01",
          "latitude": 47.6,
          "name": "SEATTLE CITY OFFICE, WA US",
          "datacoverage": 0.9257,
          "id": "COOP:457488",
          "elevationUnit": "METERS",
          "longitude": -122.33333
      },
      {
          "elevation": 134.1,
          "mindate": "1919-01-01",
          "maxdate": "2015-11-01",
          "latitude": 47.5413,
          "name": "SNOQUALMIE FALLS, WA US",
          "datacoverage": 0.9622,
          "id": "COOP:457773",
          "elevationUnit": "METERS",
          "longitude": -121.8361
      },
      {
          "elevation": 7.6,
          "mindate": "1982-03-01",
          "maxdate": "2015-11-01",
          "latitude": 47.2472,
          "name": "TACOMA NUMBER 1, WA US",
          "datacoverage": 0.9654,
          "id": "COOP:458278",
          "elevationUnit": "METERS",
          "longitude": -122.4122
      },
      {
          "elevation": 82,
          "mindate": "1919-01-01",
          "maxdate": "1981-12-01",
          "latitude": 47.25,
          "name": "TACOMA CITY HALL",
          "datacoverage": 0.9563,
          "id": "COOP:458286",
          "elevationUnit": "METERS",
          "longitude": -122.43333
      },
      {
          "elevation": 18.3,
          "mindate": "1949-01-01",
          "maxdate": "1951-03-01",
          "latitude": 47.66667,
          "name": "CARNATION 1 NW, WA US",
          "datacoverage": 0.4825,
          "id": "COOP:458506",
          "elevationUnit": "METERS",
          "longitude": -121.91667
      },
      {
          "elevation": 609.6,
          "mindate": "1962-12-01",
          "maxdate": "2015-11-01",
          "latitude": 47.7,
          "name": "TOLT SOUTH FORK RESERVOIR, WA US",
          "datacoverage": 0.9308,
          "id": "COOP:458508",
          "elevationUnit": "METERS",
          "longitude": -121.6908
      },
      {
          "elevation": 70.1,
          "mindate": "1919-01-01",
          "maxdate": "1955-02-01",
          "latitude": 47.45,
          "name": "VASHON ISLAND, WA US",
          "datacoverage": 0.9195,
          "id": "COOP:458802",
          "elevationUnit": "METERS",
          "longitude": -122.5
      },
      {
          "elevation": 5.2,
          "mindate": "1938-07-01",
          "maxdate": "2014-12-01",
          "latitude": 47.3725,
          "name": "WAUNA 3 W, WA US",
          "datacoverage": 0.9684,
          "id": "COOP:459021",
          "elevationUnit": "METERS",
          "longitude": -122.7027
      },
      {
          "elevation": 78,
          "mindate": "2009-11-01",
          "maxdate": "2018-07-15",
          "latitude": 48.005686,
          "name": "FREELAND 1.2 ESE, WA US",
          "datacoverage": 0.9873,
          "id": "GHCND:US1WAIS0016",
          "elevationUnit": "METERS",
          "longitude": -122.514642
      },
      {
          "elevation": 78.9,
          "mindate": "2015-12-23",
          "maxdate": "2017-09-08",
          "latitude": 48.01927,
          "name": "LANGLEY 1.3 SSW, WA US",
          "datacoverage": 0.7316,
          "id": "GHCND:US1WAIS0036",
          "elevationUnit": "METERS",
          "longitude": -122.415492
      },
      {
          "elevation": 78,
          "mindate": "2018-07-31",
          "maxdate": "2021-12-14",
          "latitude": 48.005686,
          "name": "FREELAND 1.2 ESE, WA US",
          "datacoverage": 0.9997,
          "id": "GHCND:US1WAIS0040",
          "elevationUnit": "METERS",
          "longitude": -122.514642
      },
      {
          "elevation": 112.2,
          "mindate": "2018-11-21",
          "maxdate": "2021-12-12",
          "latitude": 47.99284,
          "name": "CLINTON 1.7 NW, WA US",
          "datacoverage": 0.9998,
          "id": "GHCND:US1WAIS0042",
          "elevationUnit": "METERS",
          "longitude": -122.38784
      },
      {
          "elevation": 77.1,
          "mindate": "2019-04-14",
          "maxdate": "2021-12-13",
          "latitude": 48.02582,
          "name": "LANGLEY 0.8 S, WA US",
          "datacoverage": 0.8297,
          "id": "GHCND:US1WAIS0044",
          "elevationUnit": "METERS",
          "longitude": -122.40772
      },
      {
          "elevation": 73.2,
          "mindate": "2008-07-01",
          "maxdate": "2013-11-22",
          "latitude": 47.910133,
          "name": "PORT LUDLOW 1.1 SSE, WA US",
          "datacoverage": 0.9843,
          "id": "GHCND:US1WAJF0002",
          "elevationUnit": "METERS",
          "longitude": -122.680782
      },
      {
          "elevation": 19.8,
          "mindate": "2009-11-01",
          "maxdate": "2010-05-17",
          "latitude": 47.7029836,
          "name": "BRINNON 2.1 NW, WA US",
          "datacoverage": 1,
          "id": "GHCND:US1WAJF0009",
          "elevationUnit": "METERS",
          "longitude": -122.9257576
      },
      {
          "elevation": 202.7,
          "mindate": "2011-10-01",
          "maxdate": "2021-12-14",
          "latitude": 47.66677,
          "name": "BRINNON 1.7 WSW, WA US",
          "datacoverage": 0.9998,
          "id": "GHCND:US1WAJF0014",
          "elevationUnit": "METERS",
          "longitude": -122.92866
      },
      {
          "elevation": 82,
          "mindate": "2011-12-01",
          "maxdate": "2016-01-24",
          "latitude": 47.8741,
          "name": "PORT LUDLOW 3.6 S, WA US",
          "datacoverage": 0.9993,
          "id": "GHCND:US1WAJF0015",
          "elevationUnit": "METERS",
          "longitude": -122.6722
      },
      {
          "elevation": 52.7,
          "mindate": "1998-06-01",
          "maxdate": "2017-09-01",
          "latitude": 47.9328217,
          "name": "PORT LUDLOW 0.5 NNW, WA US",
          "datacoverage": 1,
          "id": "GHCND:US1WAJF0020",
          "elevationUnit": "METERS",
          "longitude": -122.685972
      },
      {
          "elevation": 88.4,
          "mindate": "2015-04-01",
          "maxdate": "2019-01-16",
          "latitude": 47.950833,
          "name": "PORT LUDLOW 1.8 NNW, WA US",
          "datacoverage": 0.998,
          "id": "GHCND:US1WAJF0027",
          "elevationUnit": "METERS",
          "longitude": -122.697222
      },
      {
          "elevation": 5.5,
          "mindate": "2020-05-12",
          "maxdate": "2021-03-07",
          "latitude": 47.826746,
          "name": "QUILCENE 1.1 ENE, WA US",
          "datacoverage": 0.8919,
          "id": "GHCND:US1WAJF0051",
          "elevationUnit": "METERS",
          "longitude": -122.853086
      },
      {
          "elevation": 11.9,
          "mindate": "2020-10-14",
          "maxdate": "2021-12-15",
          "latitude": 47.915592,
          "name": "PORT LUDLOW 1.2 SW, WA US",
          "datacoverage": 0.9206,
          "id": "GHCND:US1WAJF0053",
          "elevationUnit": "METERS",
          "longitude": -122.702831
      },
      {
          "elevation": 139.9,
          "mindate": "2020-10-01",
          "maxdate": "2021-12-15",
          "latitude": 47.9021,
          "name": "PORT LUDLOW 1.7 SSE, WA US",
          "datacoverage": 1,
          "id": "GHCND:US1WAJF0054",
          "elevationUnit": "METERS",
          "longitude": -122.674151
      },
      {
          "elevation": 43.9,
          "mindate": "2008-06-01",
          "maxdate": "2021-12-13",
          "latitude": 47.763558,
          "name": "LAKE FOREST PARK 0.4 W, WA US",
          "datacoverage": 0.3511,
          "id": "GHCND:US1WAKG0003",
          "elevationUnit": "METERS",
          "longitude": -122.293917
      },
      {
          "elevation": 160.9,
          "mindate": "2008-05-01",
          "maxdate": "2020-02-06",
          "latitude": 47.484508,
          "name": "RENTON 3.2 E, WA US",
          "datacoverage": 0.9683,
          "id": "GHCND:US1WAKG0004",
          "elevationUnit": "METERS",
          "longitude": -122.127169
      },
      {
          "elevation": 26.5,
          "mindate": "2008-06-01",
          "maxdate": "2021-12-14",
          "latitude": 47.5859,
          "name": "MERCER ISLAND 1.5 NW, WA US",
          "datacoverage": 1,
          "id": "GHCND:US1WAKG0005",
          "elevationUnit": "METERS",
          "longitude": -122.2509
      },
      {
          "elevation": 91.4,
          "mindate": "2008-06-01",
          "maxdate": "2009-04-17",
          "latitude": 47.686475,
          "name": "SEATTLE 4.9 NNW, WA US",
          "datacoverage": 1,
          "id": "GHCND:US1WAKG0006",
          "elevationUnit": "METERS",
          "longitude": -122.393367
      },
      {
          "elevation": 157.6,
          "mindate": "2008-06-01",
          "maxdate": "2021-12-14",
          "latitude": 47.468918,
          "name": "NORTH BEND 2.8 SE, WA US",
          "datacoverage": 1,
          "id": "GHCND:US1WAKG0007",
          "elevationUnit": "METERS",
          "longitude": -121.744997
      },
      {
          "elevation": 267.3,
          "mindate": "2008-06-01",
          "maxdate": "2013-02-22",
          "latitude": 47.337764,
          "name": "RAVENSDALE 4.0 SE, WA US",
          "datacoverage": 1,
          "id": "GHCND:US1WAKG0008",
          "elevationUnit": "METERS",
          "longitude": -121.898859
      },
      {
          "elevation": 147.2,
          "mindate": "2008-06-01",
          "maxdate": "2021-12-15",
          "latitude": 47.408881,
          "name": "KENT 2.9 ENE, WA US",
          "datacoverage": 1,
          "id": "GHCND:US1WAKG0009",
          "elevationUnit": "METERS",
          "longitude": -122.180106
      },
      {
          "elevation": 115.5,
          "mindate": "2008-06-01",
          "maxdate": "2013-03-29",
          "latitude": 47.481417,
          "name": "RENTON 1.5 E, WA US",
          "datacoverage": 1,
          "id": "GHCND:US1WAKG0010",
          "elevationUnit": "METERS",
          "longitude": -122.164148
      },
      {
          "elevation": 114.3,
          "mindate": "2008-07-01",
          "maxdate": "2008-12-17",
          "latitude": 47.675904,
          "name": "REDMOND 2.1 W, WA US",
          "datacoverage": 0.998,
          "id": "GHCND:US1WAKG0012",
          "elevationUnit": "METERS",
          "longitude": -122.159181
      },
      {
          "elevation": 17.4,
          "mindate": "2008-06-01",
          "maxdate": "2012-11-07",
          "latitude": 47.32646,
          "name": "AUBURN 1.9 N, WA US",
          "datacoverage": 0.6665,
          "id": "GHCND:US1WAKG0013",
          "elevationUnit": "METERS",
          "longitude": -122.211267
      },
      {
          "elevation": 199.6,
          "mindate": "2008-06-01",
          "maxdate": "2016-09-18",
          "latitude": 47.550331,
          "name": "EASTGATE 1.7 SSW, WA US",
          "datacoverage": 0.8814,
          "id": "GHCND:US1WAKG0016",
          "elevationUnit": "METERS",
          "longitude": -122.150317
      },
      {
          "elevation": 99.1,
          "mindate": "2008-06-01",
          "maxdate": "2013-04-16",
          "latitude": 47.6239,
          "name": "BELLEVUE 1.6 NNE, WA US",
          "datacoverage": 0.9665,
          "id": "GHCND:US1WAKG0018",
          "elevationUnit": "METERS",
          "longitude": -122.1389
      },
      {
          "elevation": 8.8,
          "mindate": "2008-06-01",
          "maxdate": "2010-05-12",
          "latitude": 47.65099,
          "name": "SEATTLE 2.2 NNE, WA US",
          "datacoverage": 1,
          "id": "GHCND:US1WAKG0020",
          "elevationUnit": "METERS",
          "longitude": -122.33034
      },
      {
          "elevation": 240.8,
          "mindate": "2010-05-01",
          "maxdate": "2017-09-03",
          "latitude": 47.560426,
          "name": "EASTGATE 1.1 SW, WA US",
          "datacoverage": 0.9996,
          "id": "GHCND:US1WAKG0024",
          "elevationUnit": "METERS",
          "longitude": -122.151014
      },
      {
          "elevation": 182.9,
          "mindate": "2008-11-01",
          "maxdate": "2010-02-25",
          "latitude": 47.50399,
          "name": "ISSAQUAH 5.2 ESE, WA US",
          "datacoverage": 0.9947,
          "id": "GHCND:US1WAKG0025",
          "elevationUnit": "METERS",
          "longitude": -121.90656
      },
      {
          "elevation": 157,
          "mindate": "2008-06-01",
          "maxdate": "2009-12-31",
          "latitude": 47.318,
          "name": "FEDERAL WAY 1.0 ENE, WA US",
          "datacoverage": 0.9988,
          "id": "GHCND:US1WAKG0026",
          "elevationUnit": "METERS",
          "longitude": -122.322
      },
      {
          "elevation": 94.8,
          "mindate": "2008-07-01",
          "maxdate": "2021-12-13",
          "latitude": 47.68879,
          "name": "REDMOND 1.0 N, WA US",
          "datacoverage": 0.9784,
          "id": "GHCND:US1WAKG0028",
          "elevationUnit": "METERS",
          "longitude": -122.11585
      },
      {
          "elevation": 143.9,
          "mindate": "2008-08-01",
          "maxdate": "2010-12-13",
          "latitude": 47.753278,
          "name": "SHORELINE 1.0 ESE, WA US",
          "datacoverage": 0.728,
          "id": "GHCND:US1WAKG0030",
          "elevationUnit": "METERS",
          "longitude": -122.325366
      },
      {
          "elevation": 85.6,
          "mindate": "2008-07-01",
          "maxdate": "2016-07-16",
          "latitude": 47.59163,
          "name": "BELLEVUE 0.8 S, WA US",
          "datacoverage": 0.9999,
          "id": "GHCND:US1WAKG0032",
          "elevationUnit": "METERS",
          "longitude": -122.1549
      },
      {
          "elevation": 102.1,
          "mindate": "2008-06-01",
          "maxdate": "2021-12-14",
          "latitude": 47.692402,
          "name": "SHERIDAN BEACH 3.7 S, WA US",
          "datacoverage": 1,
          "id": "GHCND:US1WAKG0033",
          "elevationUnit": "METERS",
          "longitude": -122.298027
      },
      {
          "elevation": 66.4,
          "mindate": "2008-06-01",
          "maxdate": "2021-12-15",
          "latitude": 47.729542,
          "name": "WOODINVILLE 1.7 SE, WA US",
          "datacoverage": 1,
          "id": "GHCND:US1WAKG0035",
          "elevationUnit": "METERS",
          "longitude": -122.08357
      },
      {
          "elevation": 93,
          "mindate": "2008-06-01",
          "maxdate": "2014-12-30",
          "latitude": 47.65228,
          "name": "SEATTLE 3.5 NW, WA US",
          "datacoverage": 0.9998,
          "id": "GHCND:US1WAKG0038",
          "elevationUnit": "METERS",
          "longitude": -122.40951
      },
      {
          "elevation": 39.9,
          "mindate": "2008-07-01",
          "maxdate": "2015-12-03",
          "latitude": 47.5637,
          "name": "FALL CITY 0.4 SW, WA US",
          "datacoverage": 0.6998,
          "id": "GHCND:US1WAKG0039",
          "elevationUnit": "METERS",
          "longitude": -121.9014
      },
      {
          "elevation": 74.4,
          "mindate": "2008-09-01",
          "maxdate": "2011-12-01",
          "latitude": 47.640487,
          "name": "SEATTLE 2.3 NW, WA US",
          "datacoverage": 0.6253,
          "id": "GHCND:US1WAKG0040",
          "elevationUnit": "METERS",
          "longitude": -122.390332
      },
      {
          "elevation": 124.1,
          "mindate": "2008-06-01",
          "maxdate": "2021-12-15",
          "latitude": 47.433191,
          "name": "RENTON 3.6 SSE, WA US",
          "datacoverage": 1,
          "id": "GHCND:US1WAKG0041",
          "elevationUnit": "METERS",
          "longitude": -122.17037
      },
      {
          "elevation": 104.2,
          "mindate": "2008-06-01",
          "maxdate": "2021-12-14",
          "latitude": 47.52108,
          "name": "NEWPORT HILLS 1.9 SSE, WA US",
          "datacoverage": 1,
          "id": "GHCND:US1WAKG0042",
          "elevationUnit": "METERS",
          "longitude": -122.16127
      },
      {
          "elevation": 166.7,
          "mindate": "2008-07-01",
          "maxdate": "2019-05-26",
          "latitude": 47.360073,
          "name": "MAPLE VALLEY 2.8 S, WA US",
          "datacoverage": 0.9891,
          "id": "GHCND:US1WAKG0044",
          "elevationUnit": "METERS",
          "longitude": -122.02811
      },
      {
          "elevation": 80.2,
          "mindate": "2008-11-01",
          "maxdate": "2021-01-18",
          "latitude": 47.372,
          "name": "KENT 1.7 SSE, WA US",
          "datacoverage": 1,
          "id": "GHCND:US1WAKG0045",
          "elevationUnit": "METERS",
          "longitude": -122.223
      },
      {
          "elevation": 58.5,
          "mindate": "2008-08-01",
          "maxdate": "2009-04-12",
          "latitude": 47.61375,
          "name": "BELLEVUE 2.3 ENE, WA US",
          "datacoverage": 1,
          "id": "GHCND:US1WAKG0048",
          "elevationUnit": "METERS",
          "longitude": -122.10817
      },
      {
          "elevation": 199.9,
          "mindate": "2008-06-01",
          "maxdate": "2009-11-22",
          "latitude": 47.546497,
          "name": "NEWPORT HILLS 1.4 E, WA US",
          "datacoverage": 0.9998,
          "id": "GHCND:US1WAKG0049",
          "elevationUnit": "METERS",
          "longitude": -122.14353
      },
      {
          "elevation": 78,
          "mindate": "2008-06-01",
          "maxdate": "2021-12-15",
          "latitude": 47.771401,
          "name": "KENMORE 0.9 WNW, WA US",
          "datacoverage": 0.9468,
          "id": "GHCND:US1WAKG0051",
          "elevationUnit": "METERS",
          "longitude": -122.258461
      },
      {
          "elevation": 113.1,
          "mindate": "2008-06-01",
          "maxdate": "2017-05-17",
          "latitude": 47.543167,
          "name": "SEATTLE 5.6 SSW, WA US",
          "datacoverage": 1,
          "id": "GHCND:US1WAKG0052",
          "elevationUnit": "METERS",
          "longitude": -122.381017
      },
      {
          "elevation": 19.2,
          "mindate": "2008-06-01",
          "maxdate": "2011-12-28",
          "latitude": 47.674724,
          "name": "KIRKLAND 0.8 SW, WA US",
          "datacoverage": 0.9068,
          "id": "GHCND:US1WAKG0054",
          "elevationUnit": "METERS",
          "longitude": -122.204208
      },
      {
          "elevation": 23.5,
          "mindate": "2008-07-01",
          "maxdate": "2021-12-14",
          "latitude": 47.567689,
          "name": "ISSAQUAH 3.6 NW, WA US",
          "datacoverage": 0.9999,
          "id": "GHCND:US1WAKG0059",
          "elevationUnit": "METERS",
          "longitude": -122.089876
      },
      {
          "elevation": 142,
          "mindate": "2008-06-01",
          "maxdate": "2021-12-15",
          "latitude": 47.727397,
          "name": "REDMOND 3.7 N, WA US",
          "datacoverage": 1,
          "id": "GHCND:US1WAKG0061",
          "elevationUnit": "METERS",
          "longitude": -122.102078
      },
      {
          "elevation": 43,
          "mindate": "2008-06-01",
          "maxdate": "2009-01-22",
          "latitude": 47.64522,
          "name": "SEATTLE 2.0 NE, WA US",
          "datacoverage": 0.9939,
          "id": "GHCND:US1WAKG0064",
          "elevationUnit": "METERS",
          "longitude": -122.32335
      },
      {
          "elevation": 27.1,
          "mindate": "2008-07-01",
          "maxdate": "2021-12-15",
          "latitude": 47.604565,
          "name": "BELLEVUE 1.8 W, WA US",
          "datacoverage": 0.9999,
          "id": "GHCND:US1WAKG0065",
          "elevationUnit": "METERS",
          "longitude": -122.193107
      },
      {
          "elevation": 170.1,
          "mindate": "2009-01-01",
          "maxdate": "2021-12-13",
          "latitude": 47.264286,
          "name": "AUBURN 8.2 SE, WA US",
          "datacoverage": 1,
          "id": "GHCND:US1WAKG0070",
          "elevationUnit": "METERS",
          "longitude": -122.066578
      },
      {
          "elevation": 6.7,
          "mindate": "2008-07-01",
          "maxdate": "2021-12-14",
          "latitude": 47.577384,
          "name": "SEATTLE 4.2 SW, WA US",
          "datacoverage": 0.9891,
          "id": "GHCND:US1WAKG0072",
          "elevationUnit": "METERS",
          "longitude": -122.412039
      },
      {
          "elevation": 60.4,
          "mindate": "2008-07-01",
          "maxdate": "2014-01-06",
          "latitude": 47.50812,
          "name": "BRYN MAWR SKYWAY 0.9 N, WA US",
          "datacoverage": 0.9995,
          "id": "GHCND:US1WAKG0074",
          "elevationUnit": "METERS",
          "longitude": -122.241322
      },
      {
          "elevation": 149,
          "mindate": "2008-06-01",
          "maxdate": "2021-12-14",
          "latitude": 47.3308,
          "name": "LAKELAND NORTH 0.5 ENE, WA US",
          "datacoverage": 1,
          "id": "GHCND:US1WAKG0076",
          "elevationUnit": "METERS",
          "longitude": -122.2673
      },
      {
          "elevation": 61.6,
          "mindate": "2008-08-01",
          "maxdate": "2019-10-21",
          "latitude": 47.5755,
          "name": "MERCER ISLAND 0.9 ENE, WA US",
          "datacoverage": 0.9892,
          "id": "GHCND:US1WAKG0077",
          "elevationUnit": "METERS",
          "longitude": -122.21342
      },
      {
          "elevation": 87.8,
          "mindate": "1998-06-17",
          "maxdate": "2021-12-15",
          "latitude": 47.753074,
          "name": "WOODINVILLE 0.9 ENE, WA US",
          "datacoverage": 0.7672,
          "id": "GHCND:US1WAKG0078",
          "elevationUnit": "METERS",
          "longitude": -122.094256
      },
      {
          "elevation": 93.3,
          "mindate": "2008-08-01",
          "maxdate": "2021-12-15",
          "latitude": 47.640805,
          "name": "SEATTLE 3.0 WNW, WA US",
          "datacoverage": 0.9892,
          "id": "GHCND:US1WAKG0079",
          "elevationUnit": "METERS",
          "longitude": -122.40816
      },
      {
          "elevation": 64.6,
          "mindate": "2008-09-01",
          "maxdate": "2021-12-15",
          "latitude": 47.475184,
          "name": "RENTON 0.5 SSW, WA US",
          "datacoverage": 1,
          "id": "GHCND:US1WAKG0081",
          "elevationUnit": "METERS",
          "longitude": -122.201889
      },
      {
          "elevation": 47.9,
          "mindate": "2008-10-01",
          "maxdate": "2009-03-27",
          "latitude": 47.667931,
          "name": "SEATTLE 3.2 N, WA US",
          "datacoverage": 1,
          "id": "GHCND:US1WAKG0082",
          "elevationUnit": "METERS",
          "longitude": -122.361057
      },
      {
          "mindate": "2008-10-01",
          "maxdate": "2010-01-20",
          "latitude": 47.5712,
          "name": "SEATTLE 4.5 SE, WA US",
          "datacoverage": 0.998,
          "id": "GHCND:US1WAKG0083",
          "longitude": -122.2836
      },
      {
          "elevation": 41.5,
          "mindate": "2008-11-01",
          "maxdate": "2021-12-14",
          "latitude": 47.346,
          "name": "FEDERAL WAY 2.5 NNE, WA US",
          "datacoverage": 1,
          "id": "GHCND:US1WAKG0088",
          "elevationUnit": "METERS",
          "longitude": -122.322
      },
      {
          "elevation": 80.8,
          "mindate": "2008-12-01",
          "maxdate": "2017-05-19",
          "latitude": 47.691382,
          "name": "SEATTLE 5.0 NNW, WA US",
          "datacoverage": 1,
          "id": "GHCND:US1WAKG0089",
          "elevationUnit": "METERS",
          "longitude": -122.361881
      },
      {
          "elevation": 159.4,
          "mindate": "2008-11-01",
          "maxdate": "2021-12-13",
          "latitude": 47.5694,
          "name": "BELLEVUE 2.3 SSE, WA US",
          "datacoverage": 1,
          "id": "GHCND:US1WAKG0094",
          "elevationUnit": "METERS",
          "longitude": -122.1271
      },
      {
          "elevation": 119.2,
          "mindate": "2009-01-01",
          "maxdate": "2011-10-04",
          "latitude": 47.3679,
          "name": "COVINGTON 1.1 NE, WA US",
          "datacoverage": 1,
          "id": "GHCND:US1WAKG0097",
          "elevationUnit": "METERS",
          "longitude": -122.0881
      },
      {
          "elevation": 82.3,
          "mindate": "2008-12-01",
          "maxdate": "2010-09-17",
          "latitude": 47.609539,
          "name": "BELLEVUE 0.6 NE, WA US",
          "datacoverage": 1,
          "id": "GHCND:US1WAKG0102",
          "elevationUnit": "METERS",
          "longitude": -122.146189
      },
      {
          "elevation": 90.8,
          "mindate": "2008-12-01",
          "maxdate": "2009-11-26",
          "latitude": 47.68402,
          "name": "SEATTLE 4.3 N, WA US",
          "datacoverage": 1,
          "id": "GHCND:US1WAKG0104",
          "elevationUnit": "METERS",
          "longitude": -122.359318
      },
      {
          "elevation": 62.5,
          "mindate": "2009-01-01",
          "maxdate": "2021-11-23",
          "latitude": 47.3944,
          "name": "VASHON 4.9 SE, WA US",
          "datacoverage": 0.9726,
          "id": "GHCND:US1WAKG0105",
          "elevationUnit": "METERS",
          "longitude": -122.3925
      },
      {
          "elevation": 71,
          "mindate": "2008-11-01",
          "maxdate": "2016-12-05",
          "latitude": 47.704583,
          "name": "SEATTLE 6.1 NNE, WA US",
          "datacoverage": 1,
          "id": "GHCND:US1WAKG0106",
          "elevationUnit": "METERS",
          "longitude": -122.303231
      },
      {
          "elevation": 270.1,
          "mindate": "2008-12-01",
          "maxdate": "2012-09-09",
          "latitude": 47.537493,
          "name": "SNOQUALMIE 2.9 WNW, WA US",
          "datacoverage": 0.8262,
          "id": "GHCND:US1WAKG0107",
          "elevationUnit": "METERS",
          "longitude": -121.875642
      },
      {
          "elevation": 91.7,
          "mindate": "2009-09-01",
          "maxdate": "2011-01-06",
          "latitude": 47.677693,
          "name": "SEATTLE 4.3 NNE, WA US",
          "datacoverage": 0.9819,
          "id": "GHCND:US1WAKG0108",
          "elevationUnit": "METERS",
          "longitude": -122.308652
      },
      {
          "elevation": 119.8,
          "mindate": "2009-05-01",
          "maxdate": "2016-08-01",
          "latitude": 47.633008,
          "name": "SAMMAMISH 1.7 NNE, WA US",
          "datacoverage": 0.9997,
          "id": "GHCND:US1WAKG0122",
          "elevationUnit": "METERS",
          "longitude": -122.030768
      },
      {
          "elevation": 107,
          "mindate": "2009-10-01",
          "maxdate": "2016-09-30",
          "latitude": 47.312903,
          "name": "AUBURN 4.8 ENE, WA US",
          "datacoverage": 1,
          "id": "GHCND:US1WAKG0125",
          "elevationUnit": "METERS",
          "longitude": -122.11173
      },
      {
          "elevation": 122.2,
          "mindate": "2009-11-01",
          "maxdate": "2012-01-15",
          "latitude": 47.728843,
          "name": "BOTHELL 2.5 SSW, WA US",
          "datacoverage": 1,
          "id": "GHCND:US1WAKG0128",
          "elevationUnit": "METERS",
          "longitude": -122.224674
      },
      {
          "elevation": 85.6,
          "mindate": "2010-01-01",
          "maxdate": "2019-08-30",
          "latitude": 47.546121,
          "name": "SEATTLE 5.1 SE, WA US",
          "datacoverage": 0.9737,
          "id": "GHCND:US1WAKG0136",
          "elevationUnit": "METERS",
          "longitude": -122.268492
      },
      {
          "elevation": 79.2,
          "mindate": "2010-01-01",
          "maxdate": "2016-05-25",
          "latitude": 47.767586,
          "name": "SHORELINE 1.7 NW, WA US",
          "datacoverage": 1,
          "id": "GHCND:US1WAKG0137",
          "elevationUnit": "METERS",
          "longitude": -122.374121
      },
      {
          "elevation": 79.6,
          "mindate": "2010-03-01",
          "maxdate": "2016-11-15",
          "latitude": 47.6771,
          "name": "SEATTLE 4.5 NNE, WA US",
          "datacoverage": 0.9986,
          "id": "GHCND:US1WAKG0142",
          "elevationUnit": "METERS",
          "longitude": -122.2978
      },
      {
          "elevation": 246.3,
          "mindate": "2010-09-01",
          "maxdate": "2021-12-15",
          "latitude": 47.4669,
          "name": "NORTH BEND 5.4 ESE, WA US",
          "datacoverage": 1,
          "id": "GHCND:US1WAKG0143",
          "elevationUnit": "METERS",
          "longitude": -121.6806
      },
      {
          "elevation": 176.5,
          "mindate": "2010-10-01",
          "maxdate": "2015-12-23",
          "latitude": 47.43504907,
          "name": "RENTON 5.2 SE, WA US",
          "datacoverage": 0.1587,
          "id": "GHCND:US1WAKG0144",
          "elevationUnit": "METERS",
          "longitude": -122.1094936
      },
      {
          "elevation": 74.1,
          "mindate": "2010-12-01",
          "maxdate": "2021-12-15",
          "latitude": 47.681873,
          "name": "SEATTLE 4.2 N, WA US",
          "datacoverage": 1,
          "id": "GHCND:US1WAKG0145",
          "elevationUnit": "METERS",
          "longitude": -122.365539
      },
      {
          "elevation": 114.9,
          "mindate": "2010-11-01",
          "maxdate": "2019-02-12",
          "latitude": 47.693307,
          "name": "CARNATION 3.3 N, WA US",
          "datacoverage": 1,
          "id": "GHCND:US1WAKG0146",
          "elevationUnit": "METERS",
          "longitude": -121.912231
      },
      {
          "elevation": 81.7,
          "mindate": "2011-01-01",
          "maxdate": "2014-05-07",
          "latitude": 47.694668,
          "name": "REDMOND 1.5 NNW, WA US",
          "datacoverage": 0.9519,
          "id": "GHCND:US1WAKG0147",
          "elevationUnit": "METERS",
          "longitude": -122.125764
      },
      {
          "elevation": 180.4,
          "mindate": "2011-01-01",
          "maxdate": "2014-12-11",
          "latitude": 47.494801,
          "name": "ISSAQUAH 3.1 SW, WA US",
          "datacoverage": 0.8088,
          "id": "GHCND:US1WAKG0150",
          "elevationUnit": "METERS",
          "longitude": -122.075912
      },
      {
          "elevation": 116.4,
          "mindate": "2011-06-01",
          "maxdate": "2011-12-10",
          "latitude": 47.474967,
          "name": "RENTON 2.9 E, WA US",
          "datacoverage": 0.9956,
          "id": "GHCND:US1WAKG0152",
          "elevationUnit": "METERS",
          "longitude": -122.134543
      },
      {
          "elevation": 176.2,
          "mindate": "2011-09-01",
          "maxdate": "2021-12-14",
          "latitude": 47.640642,
          "name": "REDMOND 6.2 ESE, WA US",
          "datacoverage": 1,
          "id": "GHCND:US1WAKG0154",
          "elevationUnit": "METERS",
          "longitude": -121.991158
      },
      {
          "elevation": 145.4,
          "mindate": "2011-09-01",
          "maxdate": "2012-10-13",
          "latitude": 47.5647893,
          "name": "ISSAQUAH 2.6 NNE, WA US",
          "datacoverage": 0.998,
          "id": "GHCND:US1WAKG0156",
          "elevationUnit": "METERS",
          "longitude": -122.0114313
      },
      {
          "elevation": 157.9,
          "mindate": "2011-09-01",
          "maxdate": "2012-10-30",
          "latitude": 47.38649,
          "name": "MAPLE VALLEY 1.1 SSW, WA US",
          "datacoverage": 0.7128,
          "id": "GHCND:US1WAKG0158",
          "elevationUnit": "METERS",
          "longitude": -122.032897
      },
      {
          "elevation": 101.5,
          "mindate": "2011-10-01",
          "maxdate": "2014-10-14",
          "latitude": 47.678728,
          "name": "SEATTLE 5.6 NNE, WA US",
          "datacoverage": 0.5942,
          "id": "GHCND:US1WAKG0162",
          "elevationUnit": "METERS",
          "longitude": -122.279301
      },
      {
          "elevation": 96.9,
          "mindate": "2011-09-01",
          "maxdate": "2013-01-11",
          "latitude": 47.686427,
          "name": "SEATTLE 4.5 N, WA US",
          "datacoverage": 0.997,
          "id": "GHCND:US1WAKG0165",
          "elevationUnit": "METERS",
          "longitude": -122.35822
      },
      {
          "elevation": 39.6,
          "mindate": "2011-09-01",
          "maxdate": "2016-02-26",
          "latitude": 47.739071,
          "name": "DUVALL 0.8 WNW, WA US",
          "datacoverage": 0.4631,
          "id": "GHCND:US1WAKG0166",
          "elevationUnit": "METERS",
          "longitude": -121.984142
      },
      {
          "elevation": 86.6,
          "mindate": "2011-05-01",
          "maxdate": "2016-10-14",
          "latitude": 47.683295,
          "name": "SEATTLE 5.6 NNE, WA US",
          "datacoverage": 0.8618,
          "id": "GHCND:US1WAKG0168",
          "elevationUnit": "METERS",
          "longitude": -122.29836
      },
      {
          "elevation": 86.3,
          "mindate": "2011-12-01",
          "maxdate": "2013-10-06",
          "latitude": 47.686234,
          "name": "SEATTLE 4.8 NNW, WA US",
          "datacoverage": 0.5645,
          "id": "GHCND:US1WAKG0171",
          "elevationUnit": "METERS",
          "longitude": -122.389919
      },
      {
          "elevation": 129.5,
          "mindate": "2011-12-01",
          "maxdate": "2018-12-17",
          "latitude": 47.370847,
          "name": "COVINGTON 0.5 NW, WA US",
          "datacoverage": 0.3397,
          "id": "GHCND:US1WAKG0172",
          "elevationUnit": "METERS",
          "longitude": -122.10662
      },
      {
          "elevation": 52.7,
          "mindate": "2011-12-01",
          "maxdate": "2016-06-03",
          "latitude": 47.49014,
          "name": "ISSAQUAH 3.0 SSE, WA US",
          "datacoverage": 0.9998,
          "id": "GHCND:US1WAKG0173",
          "elevationUnit": "METERS",
          "longitude": -122.025456
      },
      {
          "elevation": 151.2,
          "mindate": "2012-08-01",
          "maxdate": "2014-08-04",
          "latitude": 47.534421,
          "name": "ISSAQUAH 1.5 W, WA US",
          "datacoverage": 0.9999,
          "id": "GHCND:US1WAKG0178",
          "elevationUnit": "METERS",
          "longitude": -122.069498
      },
      {
          "elevation": 9.8,
          "mindate": "2012-10-01",
          "maxdate": "2017-12-08",
          "latitude": 47.6524096727371,
          "name": "SEATTLE 2.7 NE, WA US",
          "datacoverage": 1,
          "id": "GHCND:US1WAKG0179",
          "elevationUnit": "METERS",
          "longitude": -122.314602434635
      },
      {
          "elevation": 26.8,
          "mindate": "2012-10-01",
          "maxdate": "2015-08-22",
          "latitude": 47.58374,
          "name": "SEATTLE 3.5 SW, WA US",
          "datacoverage": 1,
          "id": "GHCND:US1WAKG0180",
          "elevationUnit": "METERS",
          "longitude": -122.39923
      },
      {
          "elevation": 66.1,
          "mindate": "2012-10-01",
          "maxdate": "2021-12-15",
          "latitude": 47.765674,
          "name": "LAKE FOREST PARK 0.7 WNW, WA US",
          "datacoverage": 1,
          "id": "GHCND:US1WAKG0181",
          "elevationUnit": "METERS",
          "longitude": -122.300135
      },
      {
          "elevation": 226.8,
          "mindate": "2012-10-01",
          "maxdate": "2017-04-01",
          "latitude": 47.5334320068359,
          "name": "SNOQUALMIE 2.0 WNW, WA US",
          "datacoverage": 0.9527,
          "id": "GHCND:US1WAKG0182",
          "elevationUnit": "METERS",
          "longitude": -121.859146118164
      },
      {
          "elevation": 48.2,
          "mindate": "2012-12-01",
          "maxdate": "2016-06-21",
          "latitude": 47.340171,
          "name": "AUBURN 3.5 NW, WA US",
          "datacoverage": 1,
          "id": "GHCND:US1WAKG0185",
          "elevationUnit": "METERS",
          "longitude": -122.255311
      },
      {
          "elevation": 107.6,
          "mindate": "2013-01-01",
          "maxdate": "2015-05-06",
          "latitude": 47.6701,
          "name": "SEATTLE 3.3 N, WA US",
          "datacoverage": 1,
          "id": "GHCND:US1WAKG0188",
          "elevationUnit": "METERS",
          "longitude": -122.3546
      },
      {
          "elevation": 74.7,
          "mindate": "2013-06-01",
          "maxdate": "2021-12-09",
          "latitude": 47.697285,
          "name": "SEATTLE 5.3 N, WA US",
          "datacoverage": 0.9999,
          "id": "GHCND:US1WAKG0190",
          "elevationUnit": "METERS",
          "longitude": -122.365078
      },
      {
          "elevation": 112.5,
          "mindate": "2013-11-01",
          "maxdate": "2021-11-20",
          "latitude": 47.702386999,
          "name": "SEATTLE 5.6 N, WA US",
          "datacoverage": 1,
          "id": "GHCND:US1WAKG0192",
          "elevationUnit": "METERS",
          "longitude": -122.351663
      },
      {
          "elevation": 120.4,
          "mindate": "2013-12-01",
          "maxdate": "2016-08-28",
          "latitude": 47.3685607910156,
          "name": "COVINGTON 0.7 ENE, WA US",
          "datacoverage": 1,
          "id": "GHCND:US1WAKG0193",
          "elevationUnit": "METERS",
          "longitude": -122.08561706543
      },
      {
          "elevation": 90.5,
          "mindate": "2014-05-01",
          "maxdate": "2018-02-01",
          "latitude": 47.524494,
          "name": "ISSAQUAH 0.6 SSW, WA US",
          "datacoverage": 0.9925,
          "id": "GHCND:US1WAKG0195",
          "elevationUnit": "METERS",
          "longitude": -122.043686
      },
      {
          "elevation": 94.8,
          "mindate": "2014-04-01",
          "maxdate": "2015-02-01",
          "latitude": 47.353863,
          "name": "DES MOINES 2.9 S, WA US",
          "datacoverage": 1,
          "id": "GHCND:US1WAKG0196",
          "elevationUnit": "METERS",
          "longitude": -122.318054
      },
      {
          "elevation": 82.9,
          "mindate": "2014-10-01",
          "maxdate": "2021-09-20",
          "latitude": 47.686424,
          "name": "SEATTLE 4.5 N, WA US",
          "datacoverage": 0.9998,
          "id": "GHCND:US1WAKG0199",
          "elevationUnit": "METERS",
          "longitude": -122.362209
      },
      {
          "elevation": 60,
          "mindate": "2014-10-01",
          "maxdate": "2021-12-15",
          "latitude": 47.543999,
          "name": "SEATTLE 5.8 SSE, WA US",
          "datacoverage": 0.9998,
          "id": "GHCND:US1WAKG0200",
          "elevationUnit": "METERS",
          "longitude": -122.30381
      },
      {
          "elevation": 6.1,
          "mindate": "2014-11-01",
          "maxdate": "2021-12-13",
          "latitude": 47.609077,
          "name": "SEATTLE 0.9 SSE, WA US",
          "datacoverage": 1,
          "id": "GHCND:US1WAKG0204",
          "elevationUnit": "METERS",
          "longitude": -122.343988
      },
      {
          "elevation": 141.7,
          "mindate": "2015-04-01",
          "maxdate": "2017-02-14",
          "latitude": 47.695119,
          "name": "SEATTLE 5.3 NNE, WA US",
          "datacoverage": 0.998,
          "id": "GHCND:US1WAKG0208",
          "elevationUnit": "METERS",
          "longitude": -122.317876
      },
      {
          "elevation": 20.7,
          "mindate": "2015-02-01",
          "maxdate": "2019-02-10",
          "latitude": 47.373309,
          "name": "VASHON 5.5 SE, WA US",
          "datacoverage": 1,
          "id": "GHCND:US1WAKG0209",
          "elevationUnit": "METERS",
          "longitude": -122.421645
      },
      {
          "elevation": 39.6,
          "mindate": "2015-10-01",
          "maxdate": "2021-11-25",
          "latitude": 47.491944,
          "name": "BURIEN 2.1 NNW, WA US",
          "datacoverage": 0.998,
          "id": "GHCND:US1WAKG0210",
          "elevationUnit": "METERS",
          "longitude": -122.365
      },
      {
          "elevation": 75,
          "mindate": "2015-08-01",
          "maxdate": "2021-05-20",
          "latitude": 47.7375,
          "name": "WOODINVILLE 1.3 ESE, WA US",
          "datacoverage": 0.998,
          "id": "GHCND:US1WAKG0213",
          "elevationUnit": "METERS",
          "longitude": -122.0863
      },
      {
          "elevation": 98.5,
          "mindate": "2015-10-01",
          "maxdate": "2016-07-03",
          "latitude": 47.754638671875,
          "name": "SHORELINE 0.8 W, WA US",
          "datacoverage": 1,
          "id": "GHCND:US1WAKG0217",
          "elevationUnit": "METERS",
          "longitude": -122.358505249023
      },
      {
          "elevation": 99.7,
          "mindate": "2015-12-20",
          "maxdate": "2021-12-15",
          "latitude": 47.69756,
          "name": "CARNATION 3.6 N, WA US",
          "datacoverage": 0.9337,
          "id": "GHCND:US1WAKG0219",
          "elevationUnit": "METERS",
          "longitude": -121.91603
      },
      {
          "elevation": 121.3,
          "mindate": "2017-09-25",
          "maxdate": "2021-12-15",
          "latitude": 47.6117,
          "name": "SEATTLE 2.1 ESE, WA US",
          "datacoverage": 0.8749,
          "id": "GHCND:US1WAKG0225",
          "elevationUnit": "METERS",
          "longitude": -122.3085
      },
      {
          "elevation": 108.2,
          "mindate": "2016-09-07",
          "maxdate": "2021-12-14",
          "latitude": 47.697944,
          "name": "REDMOND 1.7 N, WA US",
          "datacoverage": 0.9986,
          "id": "GHCND:US1WAKG0226",
          "elevationUnit": "METERS",
          "longitude": -122.108127
      },
      {
          "elevation": 81.1,
          "mindate": "2017-02-05",
          "maxdate": "2018-04-16",
          "latitude": 47.363171,
          "name": "RUSTON 5.1 NNE, WA US",
          "datacoverage": 0.2408,
          "id": "GHCND:US1WAKG0228",
          "elevationUnit": "METERS",
          "longitude": -122.457479
      },
      {
          "elevation": 135.6,
          "mindate": "2017-01-17",
          "maxdate": "2021-12-15",
          "latitude": 47.696532,
          "name": "SEATTLE 5.5 NNE, WA US",
          "datacoverage": 0.8032,
          "id": "GHCND:US1WAKG0229",
          "elevationUnit": "METERS",
          "longitude": -122.312907
      },
      {
          "elevation": 109.4,
          "mindate": "2017-03-31",
          "maxdate": "2021-10-02",
          "latitude": 47.59397,
          "name": "BELLEVUE 1.1 SE, WA US",
          "datacoverage": 0.377,
          "id": "GHCND:US1WAKG0231",
          "elevationUnit": "METERS",
          "longitude": -122.136311
      },
      {
          "elevation": 93,
          "mindate": "2017-04-17",
          "maxdate": "2021-12-15",
          "latitude": 47.470924,
          "name": "SOUTHWORTH 2.7 SSE, WA US",
          "datacoverage": 0.9994,
          "id": "GHCND:US1WAKG0232",
          "elevationUnit": "METERS",
          "longitude": -122.487314
      },
      {
          "elevation": 11.3,
          "mindate": "2017-06-27",
          "maxdate": "2021-12-15",
          "latitude": 47.700155,
          "name": "MATTHEWS BEACH 0.4 NW, WA US",
          "datacoverage": 0.7893,
          "id": "GHCND:US1WAKG0234",
          "elevationUnit": "METERS",
          "longitude": -122.280497
      },
      {
          "elevation": 108.2,
          "mindate": "2017-09-15",
          "maxdate": "2021-12-14",
          "latitude": 47.30963,
          "name": "FEDERAL WAY 0.9 W, WA US",
          "datacoverage": 0.9999,
          "id": "GHCND:US1WAKG0237",
          "elevationUnit": "METERS",
          "longitude": -122.36051
      },
      {
          "elevation": 89,
          "mindate": "2018-01-01",
          "maxdate": "2021-12-15",
          "latitude": 47.67478,
          "name": "SEATTLE 5.0 NE, WA US",
          "datacoverage": 0.8753,
          "id": "GHCND:US1WAKG0238",
          "elevationUnit": "METERS",
          "longitude": -122.27757
      },
      {
          "elevation": 54.6,
          "mindate": "2017-12-24",
          "maxdate": "2021-12-15",
          "latitude": 47.67683,
          "name": "SEATTLE 3.9 N, WA US",
          "datacoverage": 0.7875,
          "id": "GHCND:US1WAKG0239",
          "elevationUnit": "METERS",
          "longitude": -122.36321
      },
      {
          "elevation": 131.1,
          "mindate": "2018-01-15",
          "maxdate": "2021-12-14",
          "latitude": 47.59942,
          "name": "SAMMAMISH 3.0 ESE, WA US",
          "datacoverage": 0.9357,
          "id": "GHCND:US1WAKG0240",
          "elevationUnit": "METERS",
          "longitude": -121.97569
      },
      {
          "elevation": 110.6,
          "mindate": "2018-08-06",
          "maxdate": "2019-04-22",
          "latitude": 47.574523,
          "name": "SEATTLE 3.7 SSW, WA US",
          "datacoverage": 0.9819,
          "id": "GHCND:US1WAKG0241",
          "elevationUnit": "METERS",
          "longitude": -122.387076
      },
      {
          "elevation": 168.6,
          "mindate": "2018-08-31",
          "maxdate": "2021-02-13",
          "latitude": 47.6952777,
          "name": "REDMOND 4.8 ENE, WA US",
          "datacoverage": 1,
          "id": "GHCND:US1WAKG0242",
          "elevationUnit": "METERS",
          "longitude": -122.01666
      },
      {
          "elevation": 48.2,
          "mindate": "2018-09-25",
          "maxdate": "2021-02-14",
          "latitude": 47.567666,
          "name": "SEATTLE 3.9 SSW, WA US",
          "datacoverage": 0.7723,
          "id": "GHCND:US1WAKG0243",
          "elevationUnit": "METERS",
          "longitude": -122.372386
      },
      {
          "elevation": 118.9,
          "mindate": "2019-06-27",
          "maxdate": "2021-12-15",
          "latitude": 47.28895,
          "name": "FEDERAL WAY 2.5 SE, WA US",
          "datacoverage": 1,
          "id": "GHCND:US1WAKG0248",
          "elevationUnit": "METERS",
          "longitude": -122.298461
      },
      {
          "elevation": 45.4,
          "mindate": "2019-09-08",
          "maxdate": "2021-08-15",
          "latitude": 47.675054,
          "name": "SEATTLE 4.0 NNW, WA US",
          "datacoverage": 0.9994,
          "id": "GHCND:US1WAKG0251",
          "elevationUnit": "METERS",
          "longitude": -122.384481
      },
      {
          "elevation": 29.3,
          "mindate": "2019-09-19",
          "maxdate": "2021-12-15",
          "latitude": 47.62063,
          "name": "MEDINA 0.6 ENE, WA US",
          "datacoverage": 0.9992,
          "id": "GHCND:US1WAKG0252",
          "elevationUnit": "METERS",
          "longitude": -122.22545
      },
      {
          "elevation": 135.9,
          "mindate": "2019-09-13",
          "maxdate": "2021-12-15",
          "latitude": 47.5132,
          "name": "RENTON 2.7 NE, WA US",
          "datacoverage": 0.9992,
          "id": "GHCND:US1WAKG0253",
          "elevationUnit": "METERS",
          "longitude": -122.1631
      },
      {
          "elevation": 135,
          "mindate": "2019-10-01",
          "maxdate": "2020-11-13",
          "latitude": 47.530849,
          "name": "SEATTLE 6.5 SSW, WA US",
          "datacoverage": 0.6707,
          "id": "GHCND:US1WAKG0255",
          "elevationUnit": "METERS",
          "longitude": -122.382541
      },
      {
          "elevation": 59.7,
          "mindate": "2020-01-22",
          "maxdate": "2020-10-13",
          "latitude": 47.76321,
          "name": "KENMORE 0.8 W, WA US",
          "datacoverage": 1,
          "id": "GHCND:US1WAKG0256",
          "elevationUnit": "METERS",
          "longitude": -122.26064
      },
      {
          "elevation": 67.7,
          "mindate": "2020-02-01",
          "maxdate": "2020-05-26",
          "latitude": 47.6379424,
          "name": "SEATTLE 2.4 WNW, WA US",
          "datacoverage": 1,
          "id": "GHCND:US1WAKG0257",
          "elevationUnit": "METERS",
          "longitude": -122.394875
      },
      {
          "elevation": 128.3,
          "mindate": "2020-05-24",
          "maxdate": "2021-12-14",
          "latitude": 47.5300199,
          "name": "SEATTLE 6.4 S, WA US",
          "datacoverage": 0.9442,
          "id": "GHCND:US1WAKG0258",
          "elevationUnit": "METERS",
          "longitude": -122.3751888
      },
      {
          "elevation": 7.9,
          "mindate": "2020-10-17",
          "maxdate": "2021-12-15",
          "latitude": 47.75172,
          "name": "LAKE FOREST PARK 0.8 SSE, WA US",
          "datacoverage": 0.7929,
          "id": "GHCND:US1WAKG0263",
          "elevationUnit": "METERS",
          "longitude": -122.2795
      },
      {
          "elevation": 54.3,
          "mindate": "2020-11-01",
          "maxdate": "2021-12-14",
          "latitude": 47.630883,
          "name": "SEATTLE 2.9 ENE, WA US",
          "datacoverage": 0.7335,
          "id": "GHCND:US1WAKG0266",
          "elevationUnit": "METERS",
          "longitude": -122.290286
      },
      {
          "elevation": 118.3,
          "mindate": "2020-11-01",
          "maxdate": "2021-12-15",
          "latitude": 47.446247,
          "name": "VASHON 0.4 W, WA US",
          "datacoverage": 0.5567,
          "id": "GHCND:US1WAKG0268",
          "elevationUnit": "METERS",
          "longitude": -122.469
      },
      {
          "elevation": 130.1,
          "mindate": "2020-12-11",
          "maxdate": "2021-12-15",
          "latitude": 47.749712,
          "name": "BOTHELL 0.7 SSW, WA US",
          "datacoverage": 0.998,
          "id": "GHCND:US1WAKG0270",
          "elevationUnit": "METERS",
          "longitude": -122.201353
      },
      {
          "elevation": 74.1,
          "mindate": "2020-12-29",
          "maxdate": "2021-11-17",
          "latitude": 47.64363,
          "name": "REDMOND 7.6 ESE, WA US",
          "datacoverage": 0.8408,
          "id": "GHCND:US1WAKG0271",
          "elevationUnit": "METERS",
          "longitude": -121.95853
      },
      {
          "elevation": 14.6,
          "mindate": "2008-06-01",
          "maxdate": "2021-12-13",
          "latitude": 47.761639,
          "name": "KINGSTON 2.7 SSE, WA US",
          "datacoverage": 1,
          "id": "GHCND:US1WAKP0001",
          "elevationUnit": "METERS",
          "longitude": -122.471868
      },
      {
          "elevation": 63.1,
          "mindate": "2008-06-01",
          "maxdate": "2021-12-15",
          "latitude": 47.585688,
          "name": "BREMERTON 1.8 NE, WA US",
          "datacoverage": 1,
          "id": "GHCND:US1WAKP0003",
          "elevationUnit": "METERS",
          "longitude": -122.609216
      },
      {
          "elevation": 7,
          "mindate": "2008-06-01",
          "maxdate": "2021-12-14",
          "latitude": 47.69194,
          "name": "BAINBRIDGE ISLAND 2.6 NNW, WA US",
          "datacoverage": 1,
          "id": "GHCND:US1WAKP0006",
          "elevationUnit": "METERS",
          "longitude": -122.549777
      },
      {
          "elevation": 5.8,
          "mindate": "2008-07-01",
          "maxdate": "2016-11-04",
          "latitude": 47.601331,
          "name": "TRACYTON 2.3 WSW, WA US",
          "datacoverage": 0.8709,
          "id": "GHCND:US1WAKP0007",
          "elevationUnit": "METERS",
          "longitude": -122.701281
      },
      {
          "elevation": 63.1,
          "mindate": "2008-06-01",
          "maxdate": "2021-12-14",
          "latitude": 47.744598,
          "name": "INDIANOLA 0.7 SSE, WA US",
          "datacoverage": 0.9788,
          "id": "GHCND:US1WAKP0008",
          "elevationUnit": "METERS",
          "longitude": -122.509685
      },
      {
          "elevation": 80.5,
          "mindate": "2008-08-01",
          "maxdate": "2012-11-26",
          "latitude": 47.633842,
          "name": "TRACYTON 2.2 NE, WA US",
          "datacoverage": 0.423,
          "id": "GHCND:US1WAKP0009",
          "elevationUnit": "METERS",
          "longitude": -122.625474
      },
      {
          "elevation": 7,
          "mindate": "2008-06-01",
          "maxdate": "2021-12-14",
          "latitude": 47.926447,
          "name": "HANSVILLE 2.8 WNW, WA US",
          "datacoverage": 1,
          "id": "GHCND:US1WAKP0012",
          "elevationUnit": "METERS",
          "longitude": -122.615431
      },
      {
          "elevation": 34.7,
          "mindate": "2001-08-01",
          "maxdate": "2017-03-18",
          "latitude": 47.432518,
          "name": "OLALLA 1.4 WNW, WA US",
          "datacoverage": 1,
          "id": "GHCND:US1WAKP0013",
          "elevationUnit": "METERS",
          "longitude": -122.573971
      },
      {
          "elevation": 119.5,
          "mindate": "2008-06-01",
          "maxdate": "2010-06-28",
          "latitude": 47.63169,
          "name": "SILVERDALE 2.7 WSW, WA US",
          "datacoverage": 1,
          "id": "GHCND:US1WAKP0014",
          "elevationUnit": "METERS",
          "longitude": -122.73245
      },
      {
          "elevation": 141.7,
          "mindate": "2008-06-01",
          "maxdate": "2012-08-31",
          "latitude": 47.594422,
          "name": "SEABECK 3.8 SW, WA US",
          "datacoverage": 0.9996,
          "id": "GHCND:US1WAKP0016",
          "elevationUnit": "METERS",
          "longitude": -122.87753
      },
      {
          "elevation": 38.7,
          "mindate": "2008-07-01",
          "maxdate": "2021-12-15",
          "latitude": 47.73169101,
          "name": "SUQUAMISH 1.4 E, WA US",
          "datacoverage": 0.9676,
          "id": "GHCND:US1WAKP0018",
          "elevationUnit": "METERS",
          "longitude": -122.55535469
      },
      {
          "elevation": 109.4,
          "mindate": "2008-07-01",
          "maxdate": "2021-12-14",
          "latitude": 47.62967,
          "name": "BAINBRIDGE ISLAND 2.4 SW, WA US",
          "datacoverage": 0.9999,
          "id": "GHCND:US1WAKP0020",
          "elevationUnit": "METERS",
          "longitude": -122.5686
      },
      {
          "elevation": 51.2,
          "mindate": "2008-08-01",
          "maxdate": "2014-09-20",
          "latitude": 47.899,
          "name": "HANSVILLE 1.5 SW, WA US",
          "datacoverage": 0.7028,
          "id": "GHCND:US1WAKP0021",
          "elevationUnit": "METERS",
          "longitude": -122.571
      },
      {
          "elevation": 122.8,
          "mindate": "2008-10-01",
          "maxdate": "2010-02-12",
          "latitude": 47.44413,
          "name": "PORT ORCHARD 6.7 SSW, WA US",
          "datacoverage": 1,
          "id": "GHCND:US1WAKP0022",
          "elevationUnit": "METERS",
          "longitude": -122.710985
      },
      {
          "elevation": 100.9,
          "mindate": "2008-09-01",
          "maxdate": "2021-12-12",
          "latitude": 47.6012955,
          "name": "BREMERTON 2.8 NE, WA US",
          "datacoverage": 0.9986,
          "id": "GHCND:US1WAKP0023",
          "elevationUnit": "METERS",
          "longitude": -122.6042633
      },
      {
          "elevation": 105.8,
          "mindate": "2008-11-01",
          "maxdate": "2009-06-01",
          "latitude": 47.653326,
          "name": "SILVERDALE 3.0 W, WA US",
          "datacoverage": 1,
          "id": "GHCND:US1WAKP0024",
          "elevationUnit": "METERS",
          "longitude": -122.748541
      },
      {
          "elevation": 91.1,
          "mindate": "2008-04-01",
          "maxdate": "2021-12-15",
          "latitude": 47.766944,
          "name": "INDIANOLA 0.9 NNW, WA US",
          "datacoverage": 0.9872,
          "id": "GHCND:US1WAKP0025",
          "elevationUnit": "METERS",
          "longitude": -122.519167
      },
      {
          "elevation": 28.3,
          "mindate": "2008-12-01",
          "maxdate": "2021-12-15",
          "latitude": 47.8083,
          "name": "KINGSTON 1.7 WNW, WA US",
          "datacoverage": 0.8752,
          "id": "GHCND:US1WAKP0026",
          "elevationUnit": "METERS",
          "longitude": -122.5288
      },
      {
          "elevation": 17.1,
          "mindate": "2009-07-01",
          "maxdate": "2013-12-11",
          "latitude": 47.719276,
          "name": "SILVERDALE 5.5 NNW, WA US",
          "datacoverage": 0.9066,
          "id": "GHCND:US1WAKP0030",
          "elevationUnit": "METERS",
          "longitude": -122.7468
      },
      {
          "elevation": 47.9,
          "mindate": "2009-08-01",
          "maxdate": "2021-12-15",
          "latitude": 47.453481,
          "name": "OLALLA 2.2 NW, WA US",
          "datacoverage": 1,
          "id": "GHCND:US1WAKP0031",
          "elevationUnit": "METERS",
          "longitude": -122.573739
      },
      {
          "elevation": 23.2,
          "mindate": "2009-11-01",
          "maxdate": "2021-12-13",
          "latitude": 47.64165,
          "name": "BAINBRIDGE ISLAND 2.6 NW, WA US",
          "datacoverage": 1,
          "id": "GHCND:US1WAKP0032",
          "elevationUnit": "METERS",
          "longitude": -122.57142
      },
      {
          "elevation": 17.4,
          "mindate": "2011-11-01",
          "maxdate": "2015-01-18",
          "latitude": 47.585043,
          "name": "BREMERTON 2.9 NNE, WA US",
          "datacoverage": 0.9819,
          "id": "GHCND:US1WAKP0035",
          "elevationUnit": "METERS",
          "longitude": -122.669406
      },
      {
          "elevation": 5.8,
          "mindate": "2010-08-01",
          "maxdate": "2021-02-22",
          "latitude": 47.585187,
          "name": "BREMERTON 2.9 NNE, WA US",
          "datacoverage": 0.643,
          "id": "GHCND:US1WAKP0036",
          "elevationUnit": "METERS",
          "longitude": -122.67157
      },
      {
          "elevation": 26.2,
          "mindate": "2011-10-01",
          "maxdate": "2012-04-30",
          "latitude": 47.588806,
          "name": "BREMERTON 3.9 NE, WA US",
          "datacoverage": 1,
          "id": "GHCND:US1WAKP0038",
          "elevationUnit": "METERS",
          "longitude": -122.64325
      },
      {
          "elevation": 113.7,
          "mindate": "2011-10-01",
          "maxdate": "2012-05-16",
          "latitude": 47.55074,
          "name": "PORT ORCHARD 3.2 ENE, WA US",
          "datacoverage": 1,
          "id": "GHCND:US1WAKP0039",
          "elevationUnit": "METERS",
          "longitude": -122.580639
      },
      {
          "elevation": 101.8,
          "mindate": "2011-10-01",
          "maxdate": "2013-09-30",
          "latitude": 47.850231,
          "name": "KINGSTON 4.1 NNW, WA US",
          "datacoverage": 0.4997,
          "id": "GHCND:US1WAKP0040",
          "elevationUnit": "METERS",
          "longitude": -122.538287
      },
      {
          "elevation": 120.4,
          "mindate": "2011-10-01",
          "maxdate": "2014-06-17",
          "latitude": 47.7784,
          "name": "POULSBO 3.2 NNW, WA US",
          "datacoverage": 0.9688,
          "id": "GHCND:US1WAKP0041",
          "elevationUnit": "METERS",
          "longitude": -122.671401
      },
      {
          "elevation": 4,
          "mindate": "2012-02-01",
          "maxdate": "2015-04-18",
          "latitude": 47.51779444,
          "name": "PORT ORCHARD 6.3 E, WA US",
          "datacoverage": 0.4623,
          "id": "GHCND:US1WAKP0043",
          "elevationUnit": "METERS",
          "longitude": -122.5074389
      },
      {
          "elevation": 42.7,
          "mindate": "2012-03-01",
          "maxdate": "2021-12-15",
          "latitude": 47.900612,
          "name": "HANSVILLE 1.8 SE, WA US",
          "datacoverage": 0.9996,
          "id": "GHCND:US1WAKP0044",
          "elevationUnit": "METERS",
          "longitude": -122.528388
      },
      {
          "elevation": 14,
          "mindate": "2012-04-01",
          "maxdate": "2021-12-15",
          "latitude": 47.53535,
          "name": "PORT ORCHARD 4.5 E, WA US",
          "datacoverage": 1,
          "id": "GHCND:US1WAKP0045",
          "elevationUnit": "METERS",
          "longitude": -122.5448
      },
      {
          "elevation": 30.2,
          "mindate": "2012-05-01",
          "maxdate": "2021-12-15",
          "latitude": 47.749256,
          "name": "INDIANOLA 0.8 WSW, WA US",
          "datacoverage": 0.9359,
          "id": "GHCND:US1WAKP0046",
          "elevationUnit": "METERS",
          "longitude": -122.529397
      },
      {
          "elevation": 100,
          "mindate": "2012-06-01",
          "maxdate": "2021-12-14",
          "latitude": 47.785564,
          "name": "POULSBO 3.7 NNW, WA US",
          "datacoverage": 1,
          "id": "GHCND:US1WAKP0047",
          "elevationUnit": "METERS",
          "longitude": -122.672994
      },
      {
          "elevation": 131.1,
          "mindate": "2012-08-01",
          "maxdate": "2014-10-14",
          "latitude": 47.4956249,
          "name": "PORT ORCHARD 3.1 SW, WA US",
          "datacoverage": 0.9998,
          "id": "GHCND:US1WAKP0048",
          "elevationUnit": "METERS",
          "longitude": -122.686754
      },
      {
          "elevation": 139.3,
          "mindate": "2014-10-01",
          "maxdate": "2017-06-09",
          "latitude": 47.58833,
          "name": "SEABECK 3.7 SSW, WA US",
          "datacoverage": 0.9998,
          "id": "GHCND:US1WAKP0051",
          "elevationUnit": "METERS",
          "longitude": -122.84359
      },
      {
          "elevation": 50.6,
          "mindate": "2016-01-15",
          "maxdate": "2018-03-06",
          "latitude": 47.628702,
          "name": "TRACYTON 3.1 ENE, WA US",
          "datacoverage": 0.954,
          "id": "GHCND:US1WAKP0054",
          "elevationUnit": "METERS",
          "longitude": -122.594583
      },
      {
          "elevation": 16.8,
          "mindate": "2016-01-26",
          "maxdate": "2021-12-13",
          "latitude": 47.9201012,
          "name": "HANSVILLE 1.4 W, WA US",
          "datacoverage": 0.4984,
          "id": "GHCND:US1WAKP0055",
          "elevationUnit": "METERS",
          "longitude": -122.5852966
      },
      {
          "elevation": 68.6,
          "mindate": "2016-03-01",
          "maxdate": "2021-12-14",
          "latitude": 47.683351,
          "name": "WINSLOW 3.8 N, WA US",
          "datacoverage": 1,
          "id": "GHCND:US1WAKP0056",
          "elevationUnit": "METERS",
          "longitude": -122.533128
      },
      {
          "elevation": 103,
          "mindate": "2017-05-25",
          "maxdate": "2020-11-10",
          "latitude": 47.5085868835449,
          "name": "PORT ORCHARD 1.9 SE, WA US",
          "datacoverage": 0.9208,
          "id": "GHCND:US1WAKP0057",
          "elevationUnit": "METERS",
          "longitude": -122.614814758301
      },
      {
          "elevation": 50,
          "mindate": "2019-09-14",
          "maxdate": "2021-12-14",
          "latitude": 47.7387,
          "name": "SUQUAMISH 1.5 ENE, WA US",
          "datacoverage": 0.9052,
          "id": "GHCND:US1WAKP0061",
          "elevationUnit": "METERS",
          "longitude": -122.5557
      },
      {
          "elevation": 104.2,
          "mindate": "2019-10-16",
          "maxdate": "2021-12-15",
          "latitude": 47.628587,
          "name": "SEABECK 0.9 S, WA US",
          "datacoverage": 0.9999,
          "id": "GHCND:US1WAKP0062",
          "elevationUnit": "METERS",
          "longitude": -122.824603
      },
      {
          "elevation": 47.2,
          "mindate": "2020-03-01",
          "maxdate": "2021-10-15",
          "latitude": 47.594,
          "name": "BREMERTON 3.9 NE, WA US",
          "datacoverage": 0.8339,
          "id": "GHCND:US1WAKP0063",
          "elevationUnit": "METERS",
          "longitude": -122.6517
      },
      {
          "elevation": 42.1,
          "mindate": "2020-06-28",
          "maxdate": "2021-12-15",
          "latitude": 47.564417,
          "name": "BREMERTON 2.9 ENE, WA US",
          "datacoverage": 0.9123,
          "id": "GHCND:US1WAKP0064",
          "elevationUnit": "METERS",
          "longitude": -122.644406
      },
      {
          "elevation": 41.8,
          "mindate": "2020-10-01",
          "maxdate": "2021-12-15",
          "latitude": 47.610821,
          "name": "TRACYTON 2.6 E, WA US",
          "datacoverage": 1,
          "id": "GHCND:US1WAKP0067",
          "elevationUnit": "METERS",
          "longitude": -122.599468
      },
      {
          "elevation": 65.8,
          "mindate": "2020-10-01",
          "maxdate": "2021-12-13",
          "latitude": 47.493611,
          "name": "PORT ORCHARD 6.3 ESE, WA US",
          "datacoverage": 1,
          "id": "GHCND:US1WAKP0068",
          "elevationUnit": "METERS",
          "longitude": -122.517
      },
      {
          "elevation": 4.3,
          "mindate": "2011-10-01",
          "maxdate": "2021-12-15",
          "latitude": 47.4269237,
          "name": "BELFAIR 3.2 WSW, WA US",
          "datacoverage": 0.9998,
          "id": "GHCND:US1WAMS0022",
          "elevationUnit": "METERS",
          "longitude": -122.8854625
      },
      {
          "elevation": 89.6,
          "mindate": "2008-05-01",
          "maxdate": "2013-01-06",
          "latitude": 47.287565,
          "name": "TACOMA 2.9 NNW, WA US",
          "datacoverage": 0.6133,
          "id": "GHCND:US1WAPR0002",
          "elevationUnit": "METERS",
          "longitude": -122.494136
      },
      {
          "elevation": 118,
          "mindate": "2008-06-01",
          "maxdate": "2021-12-15",
          "latitude": 47.14734,
          "name": "PARKLAND 0.9 NE, WA US",
          "datacoverage": 0.9788,
          "id": "GHCND:US1WAPR0003",
          "elevationUnit": "METERS",
          "longitude": -122.416869
      },
      {
          "elevation": 142.3,
          "mindate": "2008-05-01",
          "maxdate": "2020-12-31",
          "latitude": 47.165323,
          "name": "SUMMIT 1.1 WSW, WA US",
          "datacoverage": 0.9991,
          "id": "GHCND:US1WAPR0006",
          "elevationUnit": "METERS",
          "longitude": -122.378317
      },
      {
          "elevation": 104.5,
          "mindate": "2008-06-01",
          "maxdate": "2010-02-14",
          "latitude": 47.26,
          "name": "TACOMA 0.9 NW, WA US",
          "datacoverage": 1,
          "id": "GHCND:US1WAPR0014",
          "elevationUnit": "METERS",
          "longitude": -122.4751
      },
      {
          "elevation": 128.9,
          "mindate": "2008-07-01",
          "maxdate": "2010-12-28",
          "latitude": 47.17583,
          "name": "PUYALLUP 2.8 WNW, WA US",
          "datacoverage": 0.999,
          "id": "GHCND:US1WAPR0018",
          "elevationUnit": "METERS",
          "longitude": -122.351511
      },
      {
          "elevation": 14.3,
          "mindate": "2008-07-01",
          "maxdate": "2013-01-10",
          "latitude": 47.19542,
          "name": "PUYALLUP 1.1 NNW, WA US",
          "datacoverage": 0.9625,
          "id": "GHCND:US1WAPR0019",
          "elevationUnit": "METERS",
          "longitude": -122.295549
      },
      {
          "elevation": 125.3,
          "mindate": "2008-06-01",
          "maxdate": "2021-12-15",
          "latitude": 47.168288,
          "name": "PUYALLUP 2.1 ESE, WA US",
          "datacoverage": 1,
          "id": "GHCND:US1WAPR0020",
          "elevationUnit": "METERS",
          "longitude": -122.24397
      },
      {
          "elevation": 82.6,
          "mindate": "2008-06-01",
          "maxdate": "2021-12-15",
          "latitude": 47.286704,
          "name": "TACOMA 3.1 NW, WA US",
          "datacoverage": 1,
          "id": "GHCND:US1WAPR0031",
          "elevationUnit": "METERS",
          "longitude": -122.50247
      },
      {
          "elevation": 108.5,
          "mindate": "2008-09-01",
          "maxdate": "2018-07-07",
          "latitude": 47.210977,
          "name": "EDGEWOOD 2.5 SE, WA US",
          "datacoverage": 1,
          "id": "GHCND:US1WAPR0034",
          "elevationUnit": "METERS",
          "longitude": -122.255989
      },
      {
          "elevation": 101.8,
          "mindate": "2008-12-01",
          "maxdate": "2010-05-28",
          "latitude": 47.391335,
          "name": "GIG HARBOR 4.3 N, WA US",
          "datacoverage": 1,
          "id": "GHCND:US1WAPR0036",
          "elevationUnit": "METERS",
          "longitude": -122.589041
      },
      {
          "elevation": 125.9,
          "mindate": "2009-11-01",
          "maxdate": "2011-05-31",
          "latitude": 47.187062,
          "name": "WALLER 1.0 SSW, WA US",
          "datacoverage": 1,
          "id": "GHCND:US1WAPR0039",
          "elevationUnit": "METERS",
          "longitude": -122.374912
      },
      {
          "elevation": 63.1,
          "mindate": "2010-01-01",
          "maxdate": "2021-12-15",
          "latitude": 47.388138,
          "name": "GIG HARBOR 4.4 NNE, WA US",
          "datacoverage": 0.987,
          "id": "GHCND:US1WAPR0042",
          "elevationUnit": "METERS",
          "longitude": -122.552868
      },
      {
          "elevation": 49.1,
          "mindate": "2010-06-01",
          "maxdate": "2017-09-30",
          "latitude": 47.317805,
          "name": "GIG HARBOR 0.9 SE, WA US",
          "datacoverage": 0.9998,
          "id": "GHCND:US1WAPR0043",
          "elevationUnit": "METERS",
          "longitude": -122.576656
      },
      {
          "elevation": 103,
          "mindate": "2010-06-01",
          "maxdate": "2021-12-15",
          "latitude": 47.261775,
          "name": "TACOMA 1.1 NW, WA US",
          "datacoverage": 0.9998,
          "id": "GHCND:US1WAPR0045",
          "elevationUnit": "METERS",
          "longitude": -122.477183
      },
      {
          "elevation": 9.8,
          "mindate": "2010-08-01",
          "maxdate": "2011-09-21",
          "latitude": 47.1997,
          "name": "PUYALLUP 2.1 NW, WA US",
          "datacoverage": 0.9947,
          "id": "GHCND:US1WAPR0047",
          "elevationUnit": "METERS",
          "longitude": -122.32
      },
      {
          "elevation": 83.5,
          "mindate": "2012-03-01",
          "maxdate": "2021-12-15",
          "latitude": 47.3245,
          "name": "GIG HARBOR 1.6 W, WA US",
          "datacoverage": 0.9996,
          "id": "GHCND:US1WAPR0054",
          "elevationUnit": "METERS",
          "longitude": -122.6224
      },
      {
          "elevation": 75.6,
          "mindate": "2012-07-01",
          "maxdate": "2021-12-15",
          "latitude": 47.38106,
          "name": "GIG HARBOR 7.0 WNW, WA US",
          "datacoverage": 0.9553,
          "id": "GHCND:US1WAPR0057",
          "elevationUnit": "METERS",
          "longitude": -122.71559
      },
      {
          "elevation": 82.3,
          "mindate": "2012-11-01",
          "maxdate": "2015-12-24",
          "latitude": 47.400833,
          "name": "GIG HARBOR 6.3 NW, WA US",
          "datacoverage": 0.237,
          "id": "GHCND:US1WAPR0058",
          "elevationUnit": "METERS",
          "longitude": -122.670278
      },
      {
          "elevation": 76.8,
          "mindate": "2013-04-01",
          "maxdate": "2015-04-09",
          "latitude": 47.281351,
          "name": "GIG HARBOR 3.6 SSE, WA US",
          "datacoverage": 0.8811,
          "id": "GHCND:US1WAPR0059",
          "elevationUnit": "METERS",
          "longitude": -122.556878
      },
      {
          "elevation": 64.3,
          "mindate": "2013-12-01",
          "maxdate": "2021-12-15",
          "latitude": 47.3544,
          "name": "GIG HARBOR 9.2 W, WA US",
          "datacoverage": 1,
          "id": "GHCND:US1WAPR0062",
          "elevationUnit": "METERS",
          "longitude": -122.78128
      },
      {
          "elevation": 100.9,
          "mindate": "2015-04-01",
          "maxdate": "2017-02-23",
          "latitude": 47.389072,
          "name": "GIG HARBOR 4.2 N, WA US",
          "datacoverage": 0.998,
          "id": "GHCND:US1WAPR0066",
          "elevationUnit": "METERS",
          "longitude": -122.589931
      },
      {
          "elevation": 68.6,
          "mindate": "2015-11-17",
          "maxdate": "2021-12-13",
          "latitude": 47.197398,
          "name": "UNIVERSITY PLACE 1.5 S, WA US",
          "datacoverage": 0.653,
          "id": "GHCND:US1WAPR0067",
          "elevationUnit": "METERS",
          "longitude": -122.546821
      },
      {
          "elevation": 69.8,
          "mindate": "2012-11-01",
          "maxdate": "2016-01-02",
          "latitude": 47.2090682983398,
          "name": "UNIVERSITY PLACE 1.5 ESE, WA US",
          "datacoverage": 0.2633,
          "id": "GHCND:US1WAPR0068",
          "elevationUnit": "METERS",
          "longitude": -122.514617919922
      },
      {
          "elevation": 50.9,
          "mindate": "2017-10-01",
          "maxdate": "2021-12-15",
          "latitude": 47.266299,
          "name": "GIG HARBOR 4.3 S, WA US",
          "datacoverage": 0.9401,
          "id": "GHCND:US1WAPR0071",
          "elevationUnit": "METERS",
          "longitude": -122.585612
      },
      {
          "elevation": 14.9,
          "mindate": "2000-11-22",
          "maxdate": "2021-12-15",
          "latitude": 47.357317,
          "name": "GIG HARBOR 3.4 NW, WA US",
          "datacoverage": 0.9993,
          "id": "GHCND:US1WAPR0075",
          "elevationUnit": "METERS",
          "longitude": -122.64812
      },
      {
          "elevation": 84.1,
          "mindate": "2020-01-12",
          "maxdate": "2021-02-25",
          "latitude": 47.28826,
          "name": "TACOMA 3.4 NW, WA US",
          "datacoverage": 0.7226,
          "id": "GHCND:US1WAPR0076",
          "elevationUnit": "METERS",
          "longitude": -122.509
      },
      {
          "elevation": 97.2,
          "mindate": "2020-03-01",
          "maxdate": "2021-12-11",
          "latitude": 47.33554,
          "name": "GIG HARBOR 1.5 WNW, WA US",
          "datacoverage": 0.998,
          "id": "GHCND:US1WAPR0077",
          "elevationUnit": "METERS",
          "longitude": -122.6184
      },
      {
          "elevation": 192,
          "mindate": "2007-08-01",
          "maxdate": "2011-05-16",
          "latitude": 47.9155922,
          "name": "PAINE FIELD LAKE STICKNEY 2.1 NNE, WA US",
          "datacoverage": 0.6522,
          "id": "GHCND:US1WASN0002",
          "elevationUnit": "METERS",
          "longitude": -122.249649
      },
      {
          "elevation": 33.5,
          "mindate": "2008-06-01",
          "maxdate": "2021-12-15",
          "latitude": 47.9916,
          "name": "EVERETT 2.0 N, WA US",
          "datacoverage": 0.9681,
          "id": "GHCND:US1WASN0004",
          "elevationUnit": "METERS",
          "longitude": -122.2067
      },
      {
          "elevation": 66.1,
          "mindate": "2008-06-01",
          "maxdate": "2011-11-26",
          "latitude": 47.823844,
          "name": "BOTHELL 4.4 N, WA US",
          "datacoverage": 0.9765,
          "id": "GHCND:US1WASN0007",
          "elevationUnit": "METERS",
          "longitude": -122.205868
      },
      {
          "elevation": 89.3,
          "mindate": "2008-06-01",
          "maxdate": "2021-12-15",
          "latitude": 47.83021,
          "name": "BOTHELL 4.9 NNW, WA US",
          "datacoverage": 1,
          "id": "GHCND:US1WASN0012",
          "elevationUnit": "METERS",
          "longitude": -122.21544
      },
      {
          "elevation": 130.8,
          "mindate": "2008-08-01",
          "maxdate": "2010-04-05",
          "latitude": 47.792761,
          "name": "BRIER 0.3 W, WA US",
          "datacoverage": 0.9819,
          "id": "GHCND:US1WASN0015",
          "elevationUnit": "METERS",
          "longitude": -122.278443
      },
      {
          "elevation": 140.8,
          "mindate": "2008-06-01",
          "maxdate": "2011-01-08",
          "latitude": 47.825955,
          "name": "CLEARVIEW 0.8 SW, WA US",
          "datacoverage": 0.999,
          "id": "GHCND:US1WASN0016",
          "elevationUnit": "METERS",
          "longitude": -122.138636
      },
      {
          "elevation": 149.7,
          "mindate": "2007-09-01",
          "maxdate": "2014-04-14",
          "latitude": 47.860494,
          "name": "LYNNWOOD 2.3 N, WA US",
          "datacoverage": 0.9129,
          "id": "GHCND:US1WASN0017",
          "elevationUnit": "METERS",
          "longitude": -122.311496
      },
      {
          "elevation": 71,
          "mindate": "2008-06-01",
          "maxdate": "2021-12-15",
          "latitude": 47.9495,
          "name": "EVERETT 1.0 S, WA US",
          "datacoverage": 1,
          "id": "GHCND:US1WASN0020",
          "elevationUnit": "METERS",
          "longitude": -122.2006
      },
      {
          "elevation": 131.1,
          "mindate": "2010-11-01",
          "maxdate": "2021-12-15",
          "latitude": 47.787711,
          "name": "BRIER 0.7 WSW, WA US",
          "datacoverage": 1,
          "id": "GHCND:US1WASN0021",
          "elevationUnit": "METERS",
          "longitude": -122.284491
      },
      {
          "elevation": 31.7,
          "mindate": "2008-07-01",
          "maxdate": "2021-12-15",
          "latitude": 47.996751,
          "name": "EVERETT 2.4 NNW, WA US",
          "datacoverage": 0.9131,
          "id": "GHCND:US1WASN0027",
          "elevationUnit": "METERS",
          "longitude": -122.209573
      },
      {
          "elevation": 86.9,
          "mindate": "2008-06-01",
          "maxdate": "2012-10-08",
          "latitude": 47.818501,
          "name": "BOTHELL 4.1 NNE, WA US",
          "datacoverage": 0.8675,
          "id": "GHCND:US1WASN0029",
          "elevationUnit": "METERS",
          "longitude": -122.198608
      },
      {
          "elevation": 164.6,
          "mindate": "2009-06-01",
          "maxdate": "2010-09-27",
          "latitude": 47.8663,
          "name": "LYNNWOOD 3.3 NNE, WA US",
          "datacoverage": 1,
          "id": "GHCND:US1WASN0035",
          "elevationUnit": "METERS",
          "longitude": -122.2938
      },
      {
          "elevation": 45.1,
          "mindate": "2008-09-01",
          "maxdate": "2009-11-24",
          "latitude": 47.954248,
          "name": "EVERETT 2.4 WSW, WA US",
          "datacoverage": 1,
          "id": "GHCND:US1WASN0036",
          "elevationUnit": "METERS",
          "longitude": -122.247867
      },
      {
          "elevation": 80.5,
          "mindate": "2008-10-01",
          "maxdate": "2017-05-31",
          "latitude": 47.801721,
          "name": "BRIER 0.8 NE, WA US",
          "datacoverage": 0.489,
          "id": "GHCND:US1WASN0037",
          "elevationUnit": "METERS",
          "longitude": -122.26252
      },
      {
          "elevation": 121.3,
          "mindate": "2008-10-01",
          "maxdate": "2020-09-25",
          "latitude": 47.808963,
          "name": "EDMONDS 1.5 SE, WA US",
          "datacoverage": 0.9668,
          "id": "GHCND:US1WASN0038",
          "elevationUnit": "METERS",
          "longitude": -122.346579
      },
      {
          "elevation": 78,
          "mindate": "2008-10-01",
          "maxdate": "2011-04-28",
          "latitude": 47.964106,
          "name": "SNOHOMISH 3.5 NNE, WA US",
          "datacoverage": 1,
          "id": "GHCND:US1WASN0039",
          "elevationUnit": "METERS",
          "longitude": -122.057246
      },
      {
          "elevation": 104.9,
          "mindate": "2009-10-01",
          "maxdate": "2013-03-21",
          "latitude": 47.8205,
          "name": "BOTHELL 4.1 NNW, WA US",
          "datacoverage": 0.9819,
          "id": "GHCND:US1WASN0056",
          "elevationUnit": "METERS",
          "longitude": -122.225
      },
      {
          "elevation": 137.2,
          "mindate": "2010-11-01",
          "maxdate": "2021-12-14",
          "latitude": 47.875573,
          "name": "MILL CREEK 1.8 NE, WA US",
          "datacoverage": 0.9694,
          "id": "GHCND:US1WASN0058",
          "elevationUnit": "METERS",
          "longitude": -122.176131
      },
      {
          "elevation": 153,
          "mindate": "2010-02-01",
          "maxdate": "2016-07-27",
          "latitude": 47.9106,
          "name": "EVERETT 3.6 S, WA US",
          "datacoverage": 0.649,
          "id": "GHCND:US1WASN0067",
          "elevationUnit": "METERS",
          "longitude": -122.2017
      },
      {
          "elevation": 22.3,
          "mindate": "2010-03-01",
          "maxdate": "2012-02-21",
          "latitude": 47.852594,
          "name": "MONROE 0.6 SE, WA US",
          "datacoverage": 0.9993,
          "id": "GHCND:US1WASN0068",
          "elevationUnit": "METERS",
          "longitude": -121.971183
      },
      {
          "elevation": 89.6,
          "mindate": "2012-03-01",
          "maxdate": "2013-03-06",
          "latitude": 47.913286,
          "name": "MUKILTEO 1.0 SSW, WA US",
          "datacoverage": 0.9992,
          "id": "GHCND:US1WASN0081",
          "elevationUnit": "METERS",
          "longitude": -122.316152
      },
      {
          "elevation": 102.4,
          "mindate": "2012-11-01",
          "maxdate": "2021-12-10",
          "latitude": 47.80954,
          "name": "LYNNWOOD 1.6 SE, WA US",
          "datacoverage": 1,
          "id": "GHCND:US1WASN0083",
          "elevationUnit": "METERS",
          "longitude": -122.28043
      },
      {
          "elevation": 147.2,
          "mindate": "2013-07-01",
          "maxdate": "2014-03-06",
          "latitude": 47.884058,
          "name": "MUKILTEO 3.0 SSE, WA US",
          "datacoverage": 0.9998,
          "id": "GHCND:US1WASN0084",
          "elevationUnit": "METERS",
          "longitude": -122.294242
      },
      {
          "elevation": 72.5,
          "mindate": "2013-11-01",
          "maxdate": "2014-12-11",
          "latitude": 47.80934,
          "name": "WOODINVILLE 5.0 NNW, WA US",
          "datacoverage": 1,
          "id": "GHCND:US1WASN0086",
          "elevationUnit": "METERS",
          "longitude": -122.16114
      },
      {
          "elevation": 106.4,
          "mindate": "2013-04-15",
          "maxdate": "2021-12-12",
          "latitude": 47.8375930786133,
          "name": "BOTHELL 5.4 N, WA US",
          "datacoverage": 0.9996,
          "id": "GHCND:US1WASN0087",
          "elevationUnit": "METERS",
          "longitude": -122.196273803711
      },
      {
          "elevation": 112.8,
          "mindate": "2015-12-24",
          "maxdate": "2021-12-14",
          "latitude": 47.911389,
          "name": "MUKILTEO 1.1 S, WA US",
          "datacoverage": 0.9052,
          "id": "GHCND:US1WASN0090",
          "elevationUnit": "METERS",
          "longitude": -122.311111
      },
      {
          "elevation": 105.8,
          "mindate": "2016-08-01",
          "maxdate": "2021-12-14",
          "latitude": 47.887683,
          "name": "EVERETT 5.5 SSE, WA US",
          "datacoverage": 0.8616,
          "id": "GHCND:US1WASN0092",
          "elevationUnit": "METERS",
          "longitude": -122.163431
      },
      {
          "elevation": 127.7,
          "mindate": "2016-10-27",
          "maxdate": "2021-03-05",
          "latitude": 47.963589,
          "name": "WEST LAKE STEVENS 2.1 S, WA US",
          "datacoverage": 0.9996,
          "id": "GHCND:US1WASN0094",
          "elevationUnit": "METERS",
          "longitude": -122.098353
      },
      {
          "elevation": 39.3,
          "mindate": "2018-04-21",
          "maxdate": "2021-12-15",
          "latitude": 47.878453,
          "name": "MONROE 1.8 NW, WA US",
          "datacoverage": 0.9094,
          "id": "GHCND:US1WASN0101",
          "elevationUnit": "METERS",
          "longitude": -122.006627
      },
      {
          "elevation": 91.4,
          "mindate": "2019-01-01",
          "maxdate": "2021-04-05",
          "latitude": 47.95178,
          "name": "EVERETT 2.6 WSW, WA US",
          "datacoverage": 0.3523,
          "id": "GHCND:US1WASN0104",
          "elevationUnit": "METERS",
          "longitude": -122.25299
      },
      {
          "elevation": 85,
          "mindate": "2019-09-28",
          "maxdate": "2021-12-14",
          "latitude": 47.779522,
          "name": "BOTHELL 1.5 NNW, WA US",
          "datacoverage": 0.8813,
          "id": "GHCND:US1WASN0107",
          "elevationUnit": "METERS",
          "longitude": -122.208484
      },
      {
          "elevation": 161.5,
          "mindate": "2020-02-01",
          "maxdate": "2021-12-15",
          "latitude": 47.8352778,
          "name": "MONROE 2.4 SE, WA US",
          "datacoverage": 1,
          "id": "GHCND:US1WASN0108",
          "elevationUnit": "METERS",
          "longitude": -121.9430556
      },
      {
          "elevation": 147.8,
          "mindate": "2020-03-01",
          "maxdate": "2021-12-15",
          "latitude": 47.8707,
          "name": "EVERETT 6.6 SSE, WA US",
          "datacoverage": 0.9662,
          "id": "GHCND:US1WASN0109",
          "elevationUnit": "METERS",
          "longitude": -122.1608
      },
      {
          "elevation": 146.9,
          "mindate": "2020-09-29",
          "maxdate": "2021-12-15",
          "latitude": 47.8027525,
          "name": "SNOHOMISH 8.4 SSE, WA US",
          "datacoverage": 0.8555,
          "id": "GHCND:US1WASN0111",
          "elevationUnit": "METERS",
          "longitude": -122.0430476
      },
      {
          "elevation": 135.6,
          "mindate": "2021-01-01",
          "maxdate": "2021-12-15",
          "latitude": 47.7890127,
          "name": "MOUNTLAKE TERRACE 0.5 ESE, WA US",
          "datacoverage": 0.9222,
          "id": "GHCND:US1WASN0114",
          "elevationUnit": "METERS",
          "longitude": -122.2960405
      },
      {
          "mindate": "1927-08-01",
          "maxdate": "1928-09-30",
          "latitude": 47.65,
          "name": "BALLARD SEATTLE, WA US",
          "datacoverage": 0.7845,
          "id": "GHCND:USC00450410",
          "longitude": -122.383333
      },
      {
          "elevation": 34.1,
          "mindate": "1931-01-01",
          "maxdate": "1959-05-31",
          "latitude": 47.76667,
          "name": "BOTHELL, WA US",
          "datacoverage": 0.9532,
          "id": "GHCND:USC00450826",
          "elevationUnit": "METERS",
          "longitude": -122.21667
      },
      {
          "elevation": 33.5,
          "mindate": "1899-05-01",
          "maxdate": "2021-12-15",
          "latitude": 47.5688,
          "name": "BREMERTON, WA US",
          "datacoverage": 1,
          "id": "GHCND:USC00450872",
          "elevationUnit": "METERS",
          "longitude": -122.6827
      },
      {
          "elevation": 24.4,
          "mindate": "1898-01-01",
          "maxdate": "1907-01-31",
          "latitude": 47.7,
          "name": "BRINNON, WA US",
          "datacoverage": 0.9997,
          "id": "GHCND:USC00450897",
          "elevationUnit": "METERS",
          "longitude": -122.933333
      },
      {
          "elevation": 18.3,
          "mindate": "1952-01-01",
          "maxdate": "1953-03-31",
          "latitude": 47.66667,
          "name": "CARNATION 1 NW, WA US",
          "datacoverage": 1,
          "id": "GHCND:USC00451142",
          "elevationUnit": "METERS",
          "longitude": -121.91667
      },
      {
          "elevation": 15.2,
          "mindate": "1950-04-01",
          "maxdate": "1951-09-30",
          "latitude": 47.69306,
          "name": "CARNATION 4 NW, WA US",
          "datacoverage": 0.9998,
          "id": "GHCND:USC00451146",
          "elevationUnit": "METERS",
          "longitude": -121.99472
      },
      {
          "elevation": 475.5,
          "mindate": "1898-07-01",
          "maxdate": "2021-12-12",
          "latitude": 47.4144,
          "name": "CEDAR LAKE, WA US",
          "datacoverage": 1,
          "id": "GHCND:USC00451233",
          "elevationUnit": "METERS",
          "longitude": -121.7561
      },
      {
          "elevation": 115.8,
          "mindate": "1908-01-01",
          "maxdate": "1915-08-31",
          "latitude": 47.65,
          "name": "DUCKABUSH, WA US",
          "datacoverage": 0.674,
          "id": "GHCND:USC00452270",
          "elevationUnit": "METERS",
          "longitude": -122.95
      },
      {
          "elevation": 244.1,
          "mindate": "1931-06-01",
          "maxdate": "1954-02-28",
          "latitude": 47.76667,
          "name": "DUVALL 3 NE, WA US",
          "datacoverage": 0.9231,
          "id": "GHCND:USC00452309",
          "elevationUnit": "METERS",
          "longitude": -121.93333
      },
      {
          "elevation": 18.3,
          "mindate": "1894-08-01",
          "maxdate": "2021-12-15",
          "latitude": 47.9752,
          "name": "EVERETT, WA US",
          "datacoverage": 1,
          "id": "GHCND:USC00452675",
          "elevationUnit": "METERS",
          "longitude": -122.195
      },
      {
          "elevation": 15.5,
          "mindate": "1907-01-01",
          "maxdate": "2010-12-31",
          "latitude": 47.306667,
          "name": "GRAPEVIEW 3 SW, WA US",
          "datacoverage": 1,
          "id": "GHCND:USC00453284",
          "elevationUnit": "METERS",
          "longitude": -122.873611
      },
      {
          "elevation": 4.6,
          "mindate": "1931-12-01",
          "maxdate": "1933-03-31",
          "latitude": 47.91987,
          "name": "HANSVILLE, WA ",
          "datacoverage": 0.75,
          "id": "GHCND:USC00453472",
          "elevationUnit": "METERS",
          "longitude": -122.55827
      },
      {
          "elevation": 50.6,
          "mindate": "2011-01-01",
          "maxdate": "2018-08-02",
          "latitude": 47.8988,
          "name": "HANSVILLE 1 SW, WA US",
          "datacoverage": 1,
          "id": "GHCND:USC00453576",
          "elevationUnit": "METERS",
          "longitude": -122.5711
      },
      {
          "elevation": 29.3,
          "mindate": "1900-04-01",
          "maxdate": "1901-11-30",
          "latitude": 47.533333,
          "name": "ISSAQUAH, WA US",
          "datacoverage": 0.8996,
          "id": "GHCND:USC00453985",
          "elevationUnit": "METERS",
          "longitude": -122.033333
      },
      {
          "elevation": 8.8,
          "mindate": "1912-04-01",
          "maxdate": "2021-12-14",
          "latitude": 47.41735,
          "name": "KENT, WA US",
          "datacoverage": 1,
          "id": "GHCND:USC00454169",
          "elevationUnit": "METERS",
          "longitude": -122.2433
      },
      {
          "elevation": 11.9,
          "mindate": "1915-04-01",
          "maxdate": "1958-02-28",
          "latitude": 47.7,
          "name": "KEYPORT, WA US",
          "datacoverage": 0.901,
          "id": "GHCND:USC00454187",
          "elevationUnit": "METERS",
          "longitude": -122.61667
      },